[
  {
    "id": 1,
    "iso3": "SWE",
    "name": "Ågesta",
    "site_name": "Ågesta",
    "reactor_type": "PHWR",
    "net_electrical_mw": 9.0,
    "status": "shutdown",
    "commissioning_year": 1964,
    "shutdown_year": 1974,
    "latitude": 59.206,
    "longitude": 18.0829,
    "source_cite": "WNA/IAEA"
  },
  {
    "id": 2,
    "iso3": "RUS",
    "name": "Akademik-Lomonosov-1",
    "site_name": "Akademik-Lomonosov",
    "reactor_type": "PWR-KLT-40S'Floating'",
    "net_electrical_mw": 30.0,
    "status": "operational",
    "commissioning_year": 2020,
    "shutdown_year": null,
    "latitude": 69.709579,
    "longitude": 170.30625,
    "source_cite": "WNA/IAEA/Google Maps"
  },
  {
    "id": 3,
    "iso3": "RUS",
    "name": "Akademik-Lomonosov-2",
    "site_name": "Akademik-Lomonosov",
    "reactor_type": "PWR-KLT-40S'Floating'",
    "net_electrical_mw": 30.0,
    "status": "operational",
    "commissioning_year": 2020,
    "shutdown_year": null,
    "latitude": 69.709579,
    "longitude": 170.30625,
    "source_cite": "WNA/IAEA/Google Maps"
  },
  {
    "id": 4,
    "iso3": "IRN",
    "name": "Akhvaz-1",
    "site_name": "Akhvaz",
    "reactor_type": null,
    "net_electrical_mw": null,
    "status": "planned",
    "commissioning_year": null,
    "shutdown_year": null,
    "latitude": null,
    "longitude": null,
    "source_cite": "WNA"
  },
  {
    "id": 5,
    "iso3": "IRN",
    "name": "Akhvaz-2",
    "site_name": "Akhvaz",
    "reactor_type": null,
    "net_electrical_mw": null,
    "status": "planned",
    "commissioning_year": null,
    "shutdown_year": null,
    "latitude": null,
    "longitude": null,
    "source_cite": "WNA"
  },
  {
    "id": 6,
    "iso3": "TUR",
    "name": "Akkuyu-1",
    "site_name": "Akkuyu",
    "reactor_type": "PWR-VVERV-509",
    "net_electrical_mw": 1114.0,
    "status": "construction",
    "commissioning_year": null,
    "shutdown_year": null,
    "latitude": 36.144444,
    "longitude": 33.541111,
    "source_cite": "WNA/Wikipedia/IAEA"
  },
  {
    "id": 7,
    "iso3": "TUR",
    "name": "Akkuyu-2",
    "site_name": "Akkuyu",
    "reactor_type": "PWR-VVERV-509",
    "net_electrical_mw": 1114.0,
    "status": "construction",
    "commissioning_year": null,
    "shutdown_year": null,
    "latitude": 36.144444,
    "longitude": 33.541111,
    "source_cite": "Wikipedia/IAEA"
  },
  {
    "id": 8,
    "iso3": "TUR",
    "name": "Akkuyu-3",
    "site_name": "Akkuyu",
    "reactor_type": "PWR-VVERV-509",
    "net_electrical_mw": 1114.0,
    "status": "construction",
    "commissioning_year": null,
    "shutdown_year": null,
    "latitude": 36.144444,
    "longitude": 33.541111,
    "source_cite": "Wikipedia/IAEA"
  },
  {
    "id": 9,
    "iso3": "TUR",
    "name": "Akkuyu-4",
    "site_name": "Akkuyu",
    "reactor_type": "PWR-VVERV-509",
    "net_electrical_mw": 1114.0,
    "status": "construction",
    "commissioning_year": null,
    "shutdown_year": null,
    "latitude": 36.144444,
    "longitude": 33.541111,
    "source_cite": "Wikipedia/IAEA"
  },
  {
    "id": 10,
    "iso3": "KAZ",
    "name": "Aktau",
    "site_name": "Aktau",
    "reactor_type": "FBR-BN-350",
    "net_electrical_mw": 52.0,
    "status": "shutdown",
    "commissioning_year": 1973,
    "shutdown_year": 1999,
    "latitude": 43.607,
    "longitude": 51.283,
    "source_cite": "WNA/IAEA"
  },
  {
    "id": 11,
    "iso3": "ESP",
    "name": "Almaraz-1",
    "site_name": "Almaraz",
    "reactor_type": "PWR-WH3LP",
    "net_electrical_mw": 900.0,
    "status": "operational",
    "commissioning_year": 1983,
    "shutdown_year": null,
    "latitude": 39.807,
    "longitude": -5.698,
    "source_cite": "WNA/IAEA"
  },
  {
    "id": 12,
    "iso3": "ESP",
    "name": "Almaraz-2",
    "site_name": "Almaraz",
    "reactor_type": "PWR-WH3LP",
    "net_electrical_mw": 900.0,
    "status": "operational",
    "commissioning_year": 1984,
    "shutdown_year": null,
    "latitude": 39.807,
    "longitude": -5.698,
    "source_cite": "WNA/IAEA"
  },
  {
    "id": 13,
    "iso3": "BRA",
    "name": "Angra-1",
    "site_name": "Angra",
    "reactor_type": "PWR-WH2LP",
    "net_electrical_mw": 609.0,
    "status": "operational",
    "commissioning_year": 1985,
    "shutdown_year": null,
    "latitude": -23.008,
    "longitude": -44.457,
    "source_cite": "WNA/IAEA"
  },
  {
    "id": 14,
    "iso3": "BRA",
    "name": "Angra-2",
    "site_name": "Angra",
    "reactor_type": "PWR-PREKONVOI",
    "net_electrical_mw": 1245.0,
    "status": "operational",
    "commissioning_year": 2001,
    "shutdown_year": null,
    "latitude": -23.008,
    "longitude": -44.457,
    "source_cite": "WNA/IAEA"
  },
  {
    "id": 15,
    "iso3": "BRA",
    "name": "Angra-3",
    "site_name": "Angra",
    "reactor_type": "PWR-PREKONVOI",
    "net_electrical_mw": 1340.0,
    "status": "construction",
    "commissioning_year": null,
    "shutdown_year": null,
    "latitude": -23.01,
    "longitude": -44.47,
    "source_cite": "WNA/IAEA"
  },
  {
    "id": 16,
    "iso3": "RUS",
    "name": "APS-1-Obninsk",
    "site_name": "APS-1-Obninsk",
    "reactor_type": "LWGR-AM-1",
    "net_electrical_mw": 5.0,
    "status": "shutdown",
    "commissioning_year": 1954,
    "shutdown_year": 2002,
    "latitude": 55.084,
    "longitude": 36.57,
    "source_cite": "WNA/IAEA"
  },
  {
    "id": 17,
    "iso3": "USA",
    "name": "Arkansas-Nuclear-One-1",
    "site_name": "Arkansas-Nuclear-One",
    "reactor_type": "PWR-B&WLLP(DRYAMB)",
    "net_electrical_mw": 850.0,
    "status": "operational",
    "commissioning_year": 1974,
    "shutdown_year": null,
    "latitude": 35.31,
    "longitude": -93.23,
    "source_cite": "WNA/IAEA"
  },
  {
    "id": 18,
    "iso3": "USA",
    "name": "Arkansas-Nuclear-One-2",
    "site_name": "Arkansas-Nuclear-One",
    "reactor_type": "PWR-CE2LP(DRYAMB)",
    "net_electrical_mw": 912.0,
    "status": "operational",
    "commissioning_year": 1980,
    "shutdown_year": null,
    "latitude": 35.31,
    "longitude": -93.229,
    "source_cite": "WNA/IAEA"
  },
  {
    "id": 19,
    "iso3": "ARM",
    "name": "Armenian-1",
    "site_name": "Armenian",
    "reactor_type": "PWR-VVERV-270",
    "net_electrical_mw": 376.0,
    "status": "shutdown",
    "commissioning_year": 1977,
    "shutdown_year": 1989,
    "latitude": 40.182,
    "longitude": 44.147,
    "source_cite": "WNA/IAEA"
  },
  {
    "id": 20,
    "iso3": "ARM",
    "name": "Armenian-2",
    "site_name": "Armenian",
    "reactor_type": "PWR-VVERV-270",
    "net_electrical_mw": 375.0,
    "status": "operational",
    "commissioning_year": 1980,
    "shutdown_year": null,
    "latitude": 40.182,
    "longitude": 44.147,
    "source_cite": "WNA/IAEA"
  },
  {
    "id": 21,
    "iso3": "ARM",
    "name": "Armenian-3",
    "site_name": "Armenian",
    "reactor_type": "PWR",
    "net_electrical_mw": null,
    "status": "planned",
    "commissioning_year": null,
    "shutdown_year": null,
    "latitude": 40.1808,
    "longitude": 44.1472,
    "source_cite": "WNA"
  },
  {
    "id": 22,
    "iso3": "ESP",
    "name": "Asco-1",
    "site_name": "Asco",
    "reactor_type": "PWR-WH3LP",
    "net_electrical_mw": 888.0,
    "status": "operational",
    "commissioning_year": 1984,
    "shutdown_year": null,
    "latitude": 41.202,
    "longitude": 0.571,
    "source_cite": "WNA/IAEA"
  },
  {
    "id": 23,
    "iso3": "ESP",
    "name": "Asco-2",
    "site_name": "Asco",
    "reactor_type": "PWR-WH3LP",
    "net_electrical_mw": 888.0,
    "status": "operational",
    "commissioning_year": 1986,
    "shutdown_year": null,
    "latitude": 41.202,
    "longitude": 0.571,
    "source_cite": "WNA/IAEA"
  },
  {
    "id": 24,
    "iso3": "ARG",
    "name": "Atucha-1",
    "site_name": "Atucha",
    "reactor_type": "PHWR-PHWRKWU",
    "net_electrical_mw": 319.0,
    "status": "operational",
    "commissioning_year": 1974,
    "shutdown_year": null,
    "latitude": -33.967,
    "longitude": -59.209,
    "source_cite": "WNA/IAEA"
  },
  {
    "id": 25,
    "iso3": "ARG",
    "name": "Atucha-2",
    "site_name": "Atucha",
    "reactor_type": "PHWR-PHWRKWU",
    "net_electrical_mw": 692.0,
    "status": "operational",
    "commissioning_year": 2016,
    "shutdown_year": null,
    "latitude": -33.967,
    "longitude": -59.209,
    "source_cite": "WNA/IAEA"
  },
  {
    "id": 26,
    "iso3": "RUS",
    "name": "Balakovo-1",
    "site_name": "Balakovo",
    "reactor_type": "PWR-VVERV-320",
    "net_electrical_mw": 950.0,
    "status": "operational",
    "commissioning_year": 1986,
    "shutdown_year": null,
    "latitude": 52.092,
    "longitude": 47.952,
    "source_cite": "WNA/IAEA"
  },
  {
    "id": 27,
    "iso3": "RUS",
    "name": "Balakovo-2",
    "site_name": "Balakovo",
    "reactor_type": "PWR-VVERV-320",
    "net_electrical_mw": 950.0,
    "status": "operational",
    "commissioning_year": 1988,
    "shutdown_year": null,
    "latitude": 52.092,
    "longitude": 47.952,
    "source_cite": "WNA/IAEA"
  },
  {
    "id": 28,
    "iso3": "RUS",
    "name": "Balakovo-3",
    "site_name": "Balakovo",
    "reactor_type": "PWR-VVERV-320",
    "net_electrical_mw": 950.0,
    "status": "operational",
    "commissioning_year": 1989,
    "shutdown_year": null,
    "latitude": 52.092,
    "longitude": 47.952,
    "source_cite": "WNA/IAEA"
  },
  {
    "id": 29,
    "iso3": "RUS",
    "name": "Balakovo-4",
    "site_name": "Balakovo",
    "reactor_type": "PWR-VVERV-320",
    "net_electrical_mw": 950.0,
    "status": "operational",
    "commissioning_year": 1993,
    "shutdown_year": null,
    "latitude": 52.092,
    "longitude": 47.952,
    "source_cite": "WNA/IAEA"
  },
  {
    "id": 30,
    "iso3": "RUS",
    "name": "Baltic-1",
    "site_name": "Baltic",
    "reactor_type": "PWR-VVERV-491",
    "net_electrical_mw": 1109.0,
    "status": "construction",
    "commissioning_year": null,
    "shutdown_year": null,
    "latitude": 54.939,
    "longitude": 22.162,
    "source_cite": "WNA/IAEA"
  },
  {
    "id": 31,
    "iso3": "ARE",
    "name": "Barakah-1",
    "site_name": "Barakah",
    "reactor_type": "PWR-APR-1400",
    "net_electrical_mw": 1310.0,
    "status": "operational",
    "commissioning_year": 2021,
    "shutdown_year": null,
    "latitude": 23.952748,
    "longitude": 52.193298,
    "source_cite": "WNA/IAEA"
  },
  {
    "id": 32,
    "iso3": "ARE",
    "name": "Barakah-2",
    "site_name": "Barakah",
    "reactor_type": "PWR-APR-1400",
    "net_electrical_mw": 1310.0,
    "status": "operational",
    "commissioning_year": 2022,
    "shutdown_year": null,
    "latitude": 23.952748,
    "longitude": 52.193298,
    "source_cite": "WNA/IAEA"
  },
  {
    "id": 33,
    "iso3": "ARE",
    "name": "Barakah-3",
    "site_name": "Barakah",
    "reactor_type": "PWR-APR-1400",
    "net_electrical_mw": 1310.0,
    "status": "operational",
    "commissioning_year": 2023,
    "shutdown_year": null,
    "latitude": 23.952748,
    "longitude": 52.203298,
    "source_cite": "WNA/IAEA"
  },
  {
    "id": 34,
    "iso3": "IND",
    "name": "Chutka-1",
    "site_name": "Chutka",
    "reactor_type": "PHWR",
    "net_electrical_mw": null,
    "status": "planned",
    "commissioning_year": null,
    "shutdown_year": null,
    "latitude": null,
    "longitude": null,
    "source_cite": "WNA"
  },
  {
    "id": 35,
    "iso3": "IND",
    "name": "Chutka-2",
    "site_name": "Chutka",
    "reactor_type": "PHWR",
    "net_electrical_mw": null,
    "status": "planned",
    "commissioning_year": null,
    "shutdown_year": null,
    "latitude": null,
    "longitude": null,
    "source_cite": "WNA"
  },
  {
    "id": 36,
    "iso3": "SWE",
    "name": "Barseback-1",
    "site_name": "Barseback",
    "reactor_type": "BWR-AA-II",
    "net_electrical_mw": 570.0,
    "status": "shutdown",
    "commissioning_year": 1975,
    "shutdown_year": 1999,
    "latitude": 55.745,
    "longitude": 12.926,
    "source_cite": "WNA/IAEA"
  },
  {
    "id": 37,
    "iso3": "SWE",
    "name": "Barseback-2",
    "site_name": "Barseback",
    "reactor_type": "BWR-AA-II",
    "net_electrical_mw": 570.0,
    "status": "shutdown",
    "commissioning_year": 1977,
    "shutdown_year": 2005,
    "latitude": 55.745,
    "longitude": 12.926,
    "source_cite": "WNA/IAEA"
  },
  {
    "id": 38,
    "iso3": "USA",
    "name": "Beaver-Valley-1",
    "site_name": "Beaver-Valley",
    "reactor_type": "PWR-WH3LP(DRYSUB)",
    "net_electrical_mw": 835.0,
    "status": "operational",
    "commissioning_year": 1976,
    "shutdown_year": null,
    "latitude": 40.624,
    "longitude": -80.432,
    "source_cite": "WNA/IAEA"
  },
  {
    "id": 39,
    "iso3": "USA",
    "name": "Beaver-Valley-2",
    "site_name": "Beaver-Valley",
    "reactor_type": "PWR-WH3LP(DRYSUB)",
    "net_electrical_mw": 836.0,
    "status": "operational",
    "commissioning_year": 1987,
    "shutdown_year": null,
    "latitude": 40.624,
    "longitude": -80.432,
    "source_cite": "WNA/IAEA"
  },
  {
    "id": 40,
    "iso3": "BLR",
    "name": "Belarusian-1",
    "site_name": "Belarusian",
    "reactor_type": "PWR-VVERV-491",
    "net_electrical_mw": 1110.0,
    "status": "operational",
    "commissioning_year": 2021,
    "shutdown_year": null,
    "latitude": 54.766667,
    "longitude": 26.116667,
    "source_cite": "IAEA"
  },
  {
    "id": 41,
    "iso3": "BLR",
    "name": "Belarusian-2",
    "site_name": "Belarusian",
    "reactor_type": "PWR-VVERV-491",
    "net_electrical_mw": 1110.0,
    "status": "operational",
    "commissioning_year": 2023,
    "shutdown_year": null,
    "latitude": 54.766667,
    "longitude": 26.116667,
    "source_cite": "IAEA"
  },
  {
    "id": 42,
    "iso3": "BGR",
    "name": "Belene-1",
    "site_name": "Belene",
    "reactor_type": "PWR",
    "net_electrical_mw": 953.0,
    "status": "cancelled_construction",
    "commissioning_year": null,
    "shutdown_year": null,
    "latitude": 43.62453,
    "longitude": 25.18675,
    "source_cite": "WNA/IAEA"
  },
  {
    "id": 43,
    "iso3": "BGR",
    "name": "Belene-2",
    "site_name": "Belene",
    "reactor_type": "PWR",
    "net_electrical_mw": 953.0,
    "status": "cancelled_construction",
    "commissioning_year": null,
    "shutdown_year": null,
    "latitude": 43.62453,
    "longitude": 25.1865,
    "source_cite": "WNA/IAEA"
  },
  {
    "id": 44,
    "iso3": "FRA",
    "name": "Belleville-1",
    "site_name": "Belleville",
    "reactor_type": "PWR-P4REP1300",
    "net_electrical_mw": 1310.0,
    "status": "operational",
    "commissioning_year": 1988,
    "shutdown_year": null,
    "latitude": 47.511,
    "longitude": 2.871,
    "source_cite": "WNA/IAEA"
  },
  {
    "id": 45,
    "iso3": "FRA",
    "name": "Belleville-2",
    "site_name": "Belleville",
    "reactor_type": "PWR-P4REP1300",
    "net_electrical_mw": 1310.0,
    "status": "operational",
    "commissioning_year": 1989,
    "shutdown_year": null,
    "latitude": 47.511,
    "longitude": 2.871,
    "source_cite": "WNA/IAEA"
  },
  {
    "id": 46,
    "iso3": "RUS",
    "name": "Beloyarsk-1",
    "site_name": "Beloyarsk",
    "reactor_type": "LWGR-AMB-100",
    "net_electrical_mw": 102.0,
    "status": "shutdown",
    "commissioning_year": 1964,
    "shutdown_year": 1983,
    "latitude": 56.842,
    "longitude": 61.321,
    "source_cite": "WNA/IAEA"
  },
  {
    "id": 47,
    "iso3": "RUS",
    "name": "Beloyarsk-2",
    "site_name": "Beloyarsk",
    "reactor_type": "LWGR-AMB-200",
    "net_electrical_mw": 146.0,
    "status": "shutdown",
    "commissioning_year": 1969,
    "shutdown_year": 1990,
    "latitude": 56.842,
    "longitude": 61.321,
    "source_cite": "WNA/IAEA"
  },
  {
    "id": 48,
    "iso3": "RUS",
    "name": "Beloyarsk-3",
    "site_name": "Beloyarsk",
    "reactor_type": "FBR-BN-600",
    "net_electrical_mw": 560.0,
    "status": "operational",
    "commissioning_year": 1981,
    "shutdown_year": null,
    "latitude": 56.842,
    "longitude": 61.321,
    "source_cite": "WNA/IAEA"
  },
  {
    "id": 49,
    "iso3": "RUS",
    "name": "Beloyarsk-4",
    "site_name": "Beloyarsk",
    "reactor_type": "FBR-BN-800",
    "net_electrical_mw": 820.0,
    "status": "operational",
    "commissioning_year": 2016,
    "shutdown_year": null,
    "latitude": 56.842,
    "longitude": 61.321,
    "source_cite": "WNA/IAEA"
  },
  {
    "id": 50,
    "iso3": "RUS",
    "name": "Beloyarsk-5",
    "site_name": "Beloyarsk",
    "reactor_type": "FBR-BN-1200",
    "net_electrical_mw": null,
    "status": "planned",
    "commissioning_year": null,
    "shutdown_year": null,
    "latitude": 56.842,
    "longitude": 61.321,
    "source_cite": "WNA/Wikipedia"
  },
  {
    "id": 51,
    "iso3": "GBR",
    "name": "Berkeley-1",
    "site_name": "Berkeley",
    "reactor_type": "GCR-MAGNOX",
    "net_electrical_mw": 138.0,
    "status": "shutdown",
    "commissioning_year": 1962,
    "shutdown_year": 1989,
    "latitude": 51.692,
    "longitude": -2.494,
    "source_cite": "WNA/IAEA"
  },
  {
    "id": 52,
    "iso3": "GBR",
    "name": "Berkeley-2",
    "site_name": "Berkeley",
    "reactor_type": "GCR-MAGNOX",
    "net_electrical_mw": 138.0,
    "status": "shutdown",
    "commissioning_year": 1962,
    "shutdown_year": 1988,
    "latitude": 51.692,
    "longitude": -2.494,
    "source_cite": "WNA/IAEA"
  },
  {
    "id": 53,
    "iso3": "CHE",
    "name": "Beznau-1",
    "site_name": "Beznau",
    "reactor_type": "PWR-WH2LP",
    "net_electrical_mw": 350.0,
    "status": "operational",
    "commissioning_year": 1969,
    "shutdown_year": null,
    "latitude": 47.552,
    "longitude": 8.229,
    "source_cite": "WNA/IAEA"
  },
  {
    "id": 54,
    "iso3": "CHE",
    "name": "Beznau-2",
    "site_name": "Beznau",
    "reactor_type": "PWR-WH2LP",
    "net_electrical_mw": 350.0,
    "status": "operational",
    "commissioning_year": 1972,
    "shutdown_year": null,
    "latitude": 47.552,
    "longitude": 8.229,
    "source_cite": "WNA/IAEA"
  },
  {
    "id": 55,
    "iso3": "DEU",
    "name": "Biblis-A",
    "site_name": "Biblis-A",
    "reactor_type": "PWR-PWR",
    "net_electrical_mw": 1146.0,
    "status": "shutdown",
    "commissioning_year": 1975,
    "shutdown_year": 2011,
    "latitude": 49.709,
    "longitude": 8.415,
    "source_cite": "WNA/IAEA"
  },
  {
    "id": 56,
    "iso3": "DEU",
    "name": "Biblis-B",
    "site_name": "Biblis-B",
    "reactor_type": "PWR-PWR",
    "net_electrical_mw": 1178.0,
    "status": "shutdown",
    "commissioning_year": 1977,
    "shutdown_year": 2011,
    "latitude": 49.709,
    "longitude": 8.415,
    "source_cite": "WNA/IAEA"
  },
  {
    "id": 57,
    "iso3": "USA",
    "name": "Big-Rock-Point",
    "site_name": "Big-Rock-Point",
    "reactor_type": "BWR",
    "net_electrical_mw": 72.0,
    "status": "shutdown",
    "commissioning_year": 1963,
    "shutdown_year": 1997,
    "latitude": 45.359,
    "longitude": -85.195,
    "source_cite": "WNA/IAEA"
  },
  {
    "id": 58,
    "iso3": "RUS",
    "name": "Bilibino-1",
    "site_name": "Bilibino",
    "reactor_type": "LWGR-EGP-6",
    "net_electrical_mw": 11.0,
    "status": "shutdown",
    "commissioning_year": 1974,
    "shutdown_year": 2019,
    "latitude": 68.059,
    "longitude": 166.492,
    "source_cite": "WNA/IAEA"
  },
  {
    "id": 59,
    "iso3": "RUS",
    "name": "Bilibino-2",
    "site_name": "Bilibino",
    "reactor_type": "LWGR-EGP-6",
    "net_electrical_mw": 11.0,
    "status": "operational",
    "commissioning_year": 1975,
    "shutdown_year": null,
    "latitude": 68.059,
    "longitude": 166.492,
    "source_cite": "WNA/IAEA"
  },
  {
    "id": 60,
    "iso3": "RUS",
    "name": "Bilibino-3",
    "site_name": "Bilibino",
    "reactor_type": "LWGR-EGP-6",
    "net_electrical_mw": 11.0,
    "status": "operational",
    "commissioning_year": 1976,
    "shutdown_year": null,
    "latitude": 68.059,
    "longitude": 166.492,
    "source_cite": "WNA/IAEA"
  },
  {
    "id": 61,
    "iso3": "RUS",
    "name": "Bilibino-4",
    "site_name": "Bilibino",
    "reactor_type": "LWGR-EGP-6",
    "net_electrical_mw": 11.0,
    "status": "operational",
    "commissioning_year": 1977,
    "shutdown_year": null,
    "latitude": 68.059,
    "longitude": 166.492,
    "source_cite": "WNA/IAEA"
  },
  {
    "id": 62,
    "iso3": "FRA",
    "name": "Blayais-1",
    "site_name": "Blayais",
    "reactor_type": "PWR-CP1",
    "net_electrical_mw": 910.0,
    "status": "operational",
    "commissioning_year": 1981,
    "shutdown_year": null,
    "latitude": 45.256,
    "longitude": -0.691,
    "source_cite": "WNA/IAEA"
  },
  {
    "id": 63,
    "iso3": "FRA",
    "name": "Blayais-2",
    "site_name": "Blayais",
    "reactor_type": "PWR-CP1",
    "net_electrical_mw": 910.0,
    "status": "operational",
    "commissioning_year": 1983,
    "shutdown_year": null,
    "latitude": 45.256,
    "longitude": -0.691,
    "source_cite": "WNA/IAEA"
  },
  {
    "id": 64,
    "iso3": "FRA",
    "name": "Blayais-3",
    "site_name": "Blayais",
    "reactor_type": "PWR-CP1",
    "net_electrical_mw": 910.0,
    "status": "operational",
    "commissioning_year": 1983,
    "shutdown_year": null,
    "latitude": 45.256,
    "longitude": -0.691,
    "source_cite": "WNA/IAEA"
  },
  {
    "id": 65,
    "iso3": "FRA",
    "name": "Blayais-4",
    "site_name": "Blayais",
    "reactor_type": "PWR-CP1",
    "net_electrical_mw": 910.0,
    "status": "operational",
    "commissioning_year": 1983,
    "shutdown_year": null,
    "latitude": 45.256,
    "longitude": -0.691,
    "source_cite": "WNA/IAEA"
  },
  {
    "id": 66,
    "iso3": "SVK",
    "name": "Bohunice-1",
    "site_name": "Bohunice",
    "reactor_type": "PWR-VVERV-230",
    "net_electrical_mw": 408.0,
    "status": "shutdown",
    "commissioning_year": 1980,
    "shutdown_year": 2006,
    "latitude": 48.494,
    "longitude": 17.687,
    "source_cite": "WNA/IAEA"
  },
  {
    "id": 67,
    "iso3": "SVK",
    "name": "Bohunice-2",
    "site_name": "Bohunice",
    "reactor_type": "PWR-VVERV-230",
    "net_electrical_mw": 408.0,
    "status": "shutdown",
    "commissioning_year": 1981,
    "shutdown_year": 2008,
    "latitude": 48.494,
    "longitude": 17.687,
    "source_cite": "WNA/IAEA"
  },
  {
    "id": 68,
    "iso3": "SVK",
    "name": "Bohunice-3",
    "site_name": "Bohunice",
    "reactor_type": "PWR-VVERV-213",
    "net_electrical_mw": 466.0,
    "status": "operational",
    "commissioning_year": 1985,
    "shutdown_year": null,
    "latitude": 48.494,
    "longitude": 17.687,
    "source_cite": "WNA/IAEA"
  },
  {
    "id": 69,
    "iso3": "SVK",
    "name": "Bohunice-4",
    "site_name": "Bohunice",
    "reactor_type": "PWR-VVERV-213",
    "net_electrical_mw": 466.0,
    "status": "operational",
    "commissioning_year": 1985,
    "shutdown_year": null,
    "latitude": 48.494,
    "longitude": 17.687,
    "source_cite": "WNA/IAEA"
  },
  {
    "id": 70,
    "iso3": "SVK",
    "name": "Bohunice-A1",
    "site_name": "Bohunice-A1",
    "reactor_type": "HWGCR-KS150",
    "net_electrical_mw": 110.0,
    "status": "shutdown",
    "commissioning_year": 1972,
    "shutdown_year": 1977,
    "latitude": 48.494,
    "longitude": 17.687,
    "source_cite": "WNA/IAEA"
  },
  {
    "id": 71,
    "iso3": "USA",
    "name": "BONUS",
    "site_name": "BONUS",
    "reactor_type": "BWR-Superheater",
    "net_electrical_mw": 17.0,
    "status": "shutdown",
    "commissioning_year": 1965,
    "shutdown_year": 1968,
    "latitude": 18.365,
    "longitude": -67.268,
    "source_cite": "WNA/IAEA"
  },
  {
    "id": 72,
    "iso3": "NLD",
    "name": "Borssele",
    "site_name": "Borssele",
    "reactor_type": "PWR-KWU2LP",
    "net_electrical_mw": 495.0,
    "status": "operational",
    "commissioning_year": 1973,
    "shutdown_year": null,
    "latitude": 51.431,
    "longitude": 3.719,
    "source_cite": "WNA/IAEA"
  },
  {
    "id": 73,
    "iso3": "BEL",
    "name": "BR-3",
    "site_name": "BR",
    "reactor_type": "PWR-Prototype",
    "net_electrical_mw": 11.0,
    "status": "shutdown",
    "commissioning_year": 1962,
    "shutdown_year": 1987,
    "latitude": 51.217,
    "longitude": 5.099,
    "source_cite": "WNA/IAEA"
  },
  {
    "id": 74,
    "iso3": "GBR",
    "name": "Bradwell-1",
    "site_name": "Bradwell",
    "reactor_type": "GCR-MAGNOX",
    "net_electrical_mw": 150.0,
    "status": "shutdown",
    "commissioning_year": 1962,
    "shutdown_year": 2002,
    "latitude": 51.742,
    "longitude": 0.899,
    "source_cite": "WNA/IAEA"
  },
  {
    "id": 75,
    "iso3": "GBR",
    "name": "Bradwell-2",
    "site_name": "Bradwell",
    "reactor_type": "GCR-MAGNOX",
    "net_electrical_mw": 150.0,
    "status": "shutdown",
    "commissioning_year": 1962,
    "shutdown_year": 2002,
    "latitude": 51.742,
    "longitude": 0.899,
    "source_cite": "WNA/IAEA"
  },
  {
    "id": 76,
    "iso3": "USA",
    "name": "Braidwood-1",
    "site_name": "Braidwood",
    "reactor_type": "PWR-WH4LP(DRYAMB)",
    "net_electrical_mw": 1120.0,
    "status": "operational",
    "commissioning_year": 1988,
    "shutdown_year": null,
    "latitude": 41.247,
    "longitude": -88.23,
    "source_cite": "WNA/IAEA"
  },
  {
    "id": 77,
    "iso3": "USA",
    "name": "Braidwood-2",
    "site_name": "Braidwood",
    "reactor_type": "PWR-WH4LP(DRYAMB)",
    "net_electrical_mw": 1120.0,
    "status": "operational",
    "commissioning_year": 1988,
    "shutdown_year": null,
    "latitude": 41.247,
    "longitude": -88.23,
    "source_cite": "WNA/IAEA"
  },
  {
    "id": 78,
    "iso3": "DEU",
    "name": "Brokdorf",
    "site_name": "Brokdorf",
    "reactor_type": "PWR-PWR",
    "net_electrical_mw": 1307.0,
    "status": "shutdown",
    "commissioning_year": 1986,
    "shutdown_year": 2021,
    "latitude": 53.85,
    "longitude": 9.345,
    "source_cite": "WNA/IAEA"
  },
  {
    "id": 79,
    "iso3": "USA",
    "name": "Browns-Ferry-1",
    "site_name": "Browns-Ferry",
    "reactor_type": "BWR-BWR-4(Mark1)",
    "net_electrical_mw": 1065.0,
    "status": "operational",
    "commissioning_year": 1974,
    "shutdown_year": null,
    "latitude": 34.704,
    "longitude": -87.119,
    "source_cite": "WNA/IAEA"
  },
  {
    "id": 80,
    "iso3": "USA",
    "name": "Browns-Ferry-2",
    "site_name": "Browns-Ferry",
    "reactor_type": "BWR-BWR-4(Mark1)",
    "net_electrical_mw": 1065.0,
    "status": "operational",
    "commissioning_year": 1975,
    "shutdown_year": null,
    "latitude": 34.704,
    "longitude": -87.119,
    "source_cite": "WNA/IAEA"
  },
  {
    "id": 81,
    "iso3": "USA",
    "name": "Browns-Ferry-3",
    "site_name": "Browns-Ferry",
    "reactor_type": "BWR-BWR-4(Mark1)",
    "net_electrical_mw": 1065.0,
    "status": "operational",
    "commissioning_year": 1977,
    "shutdown_year": null,
    "latitude": 34.704,
    "longitude": -87.119,
    "source_cite": "WNA/IAEA"
  },
  {
    "id": 82,
    "iso3": "CAN",
    "name": "Bruce-1",
    "site_name": "Bruce",
    "reactor_type": "PHWR-CANDU791",
    "net_electrical_mw": 732.0,
    "status": "operational",
    "commissioning_year": 1977,
    "shutdown_year": null,
    "latitude": 44.341,
    "longitude": -81.572,
    "source_cite": "WNA/IAEA"
  },
  {
    "id": 83,
    "iso3": "CAN",
    "name": "Bruce-2",
    "site_name": "Bruce",
    "reactor_type": "PHWR-CANDU791",
    "net_electrical_mw": 732.0,
    "status": "operational",
    "commissioning_year": 1977,
    "shutdown_year": null,
    "latitude": 44.341,
    "longitude": -81.572,
    "source_cite": "WNA/IAEA"
  },
  {
    "id": 84,
    "iso3": "CAN",
    "name": "Bruce-3",
    "site_name": "Bruce",
    "reactor_type": "PHWR-CANDU750A",
    "net_electrical_mw": 750.0,
    "status": "operational",
    "commissioning_year": 1978,
    "shutdown_year": null,
    "latitude": 44.341,
    "longitude": -81.572,
    "source_cite": "WNA/IAEA"
  },
  {
    "id": 85,
    "iso3": "CAN",
    "name": "Bruce-4",
    "site_name": "Bruce",
    "reactor_type": "PHWR-CANDU750A",
    "net_electrical_mw": 750.0,
    "status": "operational",
    "commissioning_year": 1979,
    "shutdown_year": null,
    "latitude": 44.341,
    "longitude": -81.572,
    "source_cite": "WNA/IAEA"
  },
  {
    "id": 86,
    "iso3": "CAN",
    "name": "Bruce-5",
    "site_name": "Bruce",
    "reactor_type": "PHWR-CANDU750B",
    "net_electrical_mw": 822.0,
    "status": "operational",
    "commissioning_year": 1985,
    "shutdown_year": null,
    "latitude": 44.341,
    "longitude": -81.572,
    "source_cite": "WNA/IAEA"
  },
  {
    "id": 87,
    "iso3": "CAN",
    "name": "Bruce-6",
    "site_name": "Bruce",
    "reactor_type": "PHWR-CANDU750B",
    "net_electrical_mw": 822.0,
    "status": "operational",
    "commissioning_year": 1984,
    "shutdown_year": null,
    "latitude": 44.341,
    "longitude": -81.572,
    "source_cite": "WNA/IAEA"
  },
  {
    "id": 88,
    "iso3": "CAN",
    "name": "Bruce-7",
    "site_name": "Bruce",
    "reactor_type": "PHWR-CANDU750B",
    "net_electrical_mw": 822.0,
    "status": "operational",
    "commissioning_year": 1986,
    "shutdown_year": null,
    "latitude": 44.341,
    "longitude": -81.572,
    "source_cite": "WNA/IAEA"
  },
  {
    "id": 89,
    "iso3": "CAN",
    "name": "Bruce-8",
    "site_name": "Bruce",
    "reactor_type": "PHWR-CANDU750B",
    "net_electrical_mw": 795.0,
    "status": "operational",
    "commissioning_year": 1987,
    "shutdown_year": null,
    "latitude": 44.341,
    "longitude": -81.572,
    "source_cite": "WNA/IAEA"
  },
  {
    "id": 90,
    "iso3": "DEU",
    "name": "Brunsbuettel",
    "site_name": "Brunsbuettel",
    "reactor_type": "BWR-BWR-69",
    "net_electrical_mw": 770.0,
    "status": "shutdown",
    "commissioning_year": 1977,
    "shutdown_year": 2011,
    "latitude": 53.891,
    "longitude": 9.202,
    "source_cite": "WNA/IAEA"
  },
  {
    "id": 91,
    "iso3": "USA",
    "name": "Brunswick-1",
    "site_name": "Brunswick",
    "reactor_type": "BWR-BWR-4(Mark1)",
    "net_electrical_mw": 821.0,
    "status": "operational",
    "commissioning_year": 1977,
    "shutdown_year": null,
    "latitude": 33.958,
    "longitude": -78.007,
    "source_cite": "WNA/IAEA"
  },
  {
    "id": 92,
    "iso3": "USA",
    "name": "Brunswick-2",
    "site_name": "Brunswick",
    "reactor_type": "BWR-BWR-4(Mark1)",
    "net_electrical_mw": 821.0,
    "status": "operational",
    "commissioning_year": 1975,
    "shutdown_year": null,
    "latitude": 33.958,
    "longitude": -78.007,
    "source_cite": "WNA/IAEA"
  },
  {
    "id": 93,
    "iso3": "FRA",
    "name": "Bugey-1",
    "site_name": "Bugey",
    "reactor_type": "GCR-UNGG",
    "net_electrical_mw": 540.0,
    "status": "shutdown",
    "commissioning_year": 1972,
    "shutdown_year": 1994,
    "latitude": 45.796,
    "longitude": 5.268,
    "source_cite": "WNA/IAEA"
  },
  {
    "id": 94,
    "iso3": "FRA",
    "name": "Bugey-2",
    "site_name": "Bugey",
    "reactor_type": "PWR-CP0",
    "net_electrical_mw": 920.0,
    "status": "operational",
    "commissioning_year": 1979,
    "shutdown_year": null,
    "latitude": 45.796,
    "longitude": 5.268,
    "source_cite": "WNA/IAEA"
  },
  {
    "id": 95,
    "iso3": "FRA",
    "name": "Bugey-3",
    "site_name": "Bugey",
    "reactor_type": "PWR-CP0",
    "net_electrical_mw": 920.0,
    "status": "operational",
    "commissioning_year": 1979,
    "shutdown_year": null,
    "latitude": 45.798,
    "longitude": 5.268,
    "source_cite": "WNA/IAEA"
  },
  {
    "id": 96,
    "iso3": "FRA",
    "name": "Bugey-4",
    "site_name": "Bugey",
    "reactor_type": "PWR-CP0",
    "net_electrical_mw": 900.0,
    "status": "operational",
    "commissioning_year": 1979,
    "shutdown_year": null,
    "latitude": 45.8,
    "longitude": 5.267,
    "source_cite": "WNA/IAEA"
  },
  {
    "id": 97,
    "iso3": "FRA",
    "name": "Bugey-5",
    "site_name": "Bugey",
    "reactor_type": "PWR-CP0",
    "net_electrical_mw": 900.0,
    "status": "operational",
    "commissioning_year": 1980,
    "shutdown_year": null,
    "latitude": 45.8,
    "longitude": 5.267,
    "source_cite": "WNA/IAEA"
  },
  {
    "id": 98,
    "iso3": "IRN",
    "name": "Bushehr-1",
    "site_name": "Bushehr",
    "reactor_type": "PWR-VVERV-446",
    "net_electrical_mw": 915.0,
    "status": "operational",
    "commissioning_year": 2013,
    "shutdown_year": null,
    "latitude": 28.831,
    "longitude": 50.887,
    "source_cite": "WNA/IAEA"
  },
  {
    "id": 99,
    "iso3": "IRN",
    "name": "Bushehr-2",
    "site_name": "Bushehr",
    "reactor_type": "PWR-V-528VVER-1000AES-92GIII+",
    "net_electrical_mw": 974.0,
    "status": "construction",
    "commissioning_year": null,
    "shutdown_year": null,
    "latitude": 28.8287,
    "longitude": 50.8895,
    "source_cite": "WNA/IAEA"
  },
  {
    "id": 100,
    "iso3": "IRN",
    "name": "Bushehr-3",
    "site_name": "Bushehr",
    "reactor_type": null,
    "net_electrical_mw": null,
    "status": "planned",
    "commissioning_year": null,
    "shutdown_year": null,
    "latitude": 28.8305,
    "longitude": 50.8872,
    "source_cite": "WNA"
  },
  {
    "id": 101,
    "iso3": "IRN",
    "name": "Bushehr-4",
    "site_name": "Bushehr",
    "reactor_type": null,
    "net_electrical_mw": null,
    "status": "planned",
    "commissioning_year": null,
    "shutdown_year": null,
    "latitude": 28.8305,
    "longitude": 50.8872,
    "source_cite": "WNA"
  },
  {
    "id": 102,
    "iso3": "USA",
    "name": "Byron-1",
    "site_name": "Byron",
    "reactor_type": "PWR-WH4LP(DRYAMB)",
    "net_electrical_mw": 1120.0,
    "status": "operational",
    "commissioning_year": 1985,
    "shutdown_year": null,
    "latitude": 42.074,
    "longitude": -89.277,
    "source_cite": "WNA/IAEA"
  },
  {
    "id": 103,
    "iso3": "USA",
    "name": "Byron-2",
    "site_name": "Byron",
    "reactor_type": "PWR-WH4LP(DRYAMB)",
    "net_electrical_mw": 1120.0,
    "status": "operational",
    "commissioning_year": 1987,
    "shutdown_year": null,
    "latitude": 42.074,
    "longitude": -89.277,
    "source_cite": "WNA/IAEA"
  },
  {
    "id": 104,
    "iso3": "GBR",
    "name": "Calder-Hall-1",
    "site_name": "Calder-Hall",
    "reactor_type": "GCR-MAGNOX",
    "net_electrical_mw": 35.0,
    "status": "shutdown",
    "commissioning_year": 1956,
    "shutdown_year": 2003,
    "latitude": 54.42,
    "longitude": -3.491,
    "source_cite": "WNA/IAEA"
  },
  {
    "id": 105,
    "iso3": "GBR",
    "name": "Calder-Hall-2",
    "site_name": "Calder-Hall",
    "reactor_type": "GCR-MAGNOX",
    "net_electrical_mw": 35.0,
    "status": "shutdown",
    "commissioning_year": 1957,
    "shutdown_year": 2003,
    "latitude": 54.42,
    "longitude": -3.491,
    "source_cite": "WNA/IAEA"
  },
  {
    "id": 106,
    "iso3": "GBR",
    "name": "Calder-Hall-3",
    "site_name": "Calder-Hall",
    "reactor_type": "GCR-MAGNOX",
    "net_electrical_mw": 35.0,
    "status": "shutdown",
    "commissioning_year": 1958,
    "shutdown_year": 2003,
    "latitude": 54.42,
    "longitude": -3.491,
    "source_cite": "WNA/IAEA"
  },
  {
    "id": 107,
    "iso3": "GBR",
    "name": "Calder-Hall-4",
    "site_name": "Calder-Hall",
    "reactor_type": "GCR-MAGNOX",
    "net_electrical_mw": 35.0,
    "status": "shutdown",
    "commissioning_year": 1959,
    "shutdown_year": 2003,
    "latitude": 54.42,
    "longitude": -3.491,
    "source_cite": "WNA/IAEA"
  },
  {
    "id": 108,
    "iso3": "USA",
    "name": "Callaway-1",
    "site_name": "Callaway",
    "reactor_type": "PWR-WH4LP(DRYAMB)",
    "net_electrical_mw": 1171.0,
    "status": "operational",
    "commissioning_year": 1984,
    "shutdown_year": null,
    "latitude": 38.763,
    "longitude": -91.781,
    "source_cite": "WNA/IAEA"
  },
  {
    "id": 109,
    "iso3": "USA",
    "name": "Calvert-Cliffs-1",
    "site_name": "Calvert-Cliffs",
    "reactor_type": "PWR-CE2LP(DRYAMB)",
    "net_electrical_mw": 845.0,
    "status": "operational",
    "commissioning_year": 1975,
    "shutdown_year": null,
    "latitude": 38.435,
    "longitude": -76.439,
    "source_cite": "WNA/IAEA"
  },
  {
    "id": 110,
    "iso3": "USA",
    "name": "Calvert-Cliffs-2",
    "site_name": "Calvert-Cliffs",
    "reactor_type": "PWR-CE2LP(DRYAMB)",
    "net_electrical_mw": 845.0,
    "status": "operational",
    "commissioning_year": 1977,
    "shutdown_year": null,
    "latitude": 38.435,
    "longitude": -76.439,
    "source_cite": "WNA/IAEA"
  },
  {
    "id": 111,
    "iso3": "ITA",
    "name": "Caorso",
    "site_name": "Caorso",
    "reactor_type": "BWR-BWR-4(Mark2)",
    "net_electrical_mw": 840.0,
    "status": "shutdown",
    "commissioning_year": 1981,
    "shutdown_year": 1990,
    "latitude": 45.072,
    "longitude": 9.872,
    "source_cite": "WNA/IAEA"
  },
  {
    "id": 112,
    "iso3": "ARG",
    "name": "CAREM25",
    "site_name": "CAREM25",
    "reactor_type": "PWR-CAREMPrototype(Integrated-PWR)",
    "net_electrical_mw": 25.0,
    "status": "construction",
    "commissioning_year": null,
    "shutdown_year": null,
    "latitude": -33.966667,
    "longitude": -59.211111,
    "source_cite": "IAEA"
  },
  {
    "id": 113,
    "iso3": "USA",
    "name": "Carolinas-CVTR",
    "site_name": "Carolinas-CVTR",
    "reactor_type": "PHWR-Prototype",
    "net_electrical_mw": 17.0,
    "status": "shutdown",
    "commissioning_year": 1963,
    "shutdown_year": 1967,
    "latitude": 34.263,
    "longitude": -81.33,
    "source_cite": "WNA/IAEA"
  },
  {
    "id": 114,
    "iso3": "USA",
    "name": "Catawba-1",
    "site_name": "Catawba",
    "reactor_type": "PWR-WH4LP(ICECND)",
    "net_electrical_mw": 1145.0,
    "status": "operational",
    "commissioning_year": 1985,
    "shutdown_year": null,
    "latitude": 35.053,
    "longitude": -81.071,
    "source_cite": "WNA/IAEA"
  },
  {
    "id": 115,
    "iso3": "USA",
    "name": "Catawba-2",
    "site_name": "Catawba",
    "reactor_type": "PWR-WH4LP(ICECND)",
    "net_electrical_mw": 1145.0,
    "status": "operational",
    "commissioning_year": 1986,
    "shutdown_year": null,
    "latitude": 35.053,
    "longitude": -81.071,
    "source_cite": "WNA/IAEA"
  },
  {
    "id": 116,
    "iso3": "FRA",
    "name": "Cattenom-1",
    "site_name": "Cattenom",
    "reactor_type": "PWR-P4REP1300",
    "net_electrical_mw": 1300.0,
    "status": "operational",
    "commissioning_year": 1987,
    "shutdown_year": null,
    "latitude": 49.416,
    "longitude": 6.217,
    "source_cite": "WNA/IAEA"
  },
  {
    "id": 117,
    "iso3": "FRA",
    "name": "Cattenom-2",
    "site_name": "Cattenom",
    "reactor_type": "PWR-P4REP1300",
    "net_electrical_mw": 1300.0,
    "status": "operational",
    "commissioning_year": 1988,
    "shutdown_year": null,
    "latitude": 49.416,
    "longitude": 6.217,
    "source_cite": "WNA/IAEA"
  },
  {
    "id": 118,
    "iso3": "FRA",
    "name": "Cattenom-3",
    "site_name": "Cattenom",
    "reactor_type": "PWR-P4REP1300",
    "net_electrical_mw": 1300.0,
    "status": "operational",
    "commissioning_year": 1991,
    "shutdown_year": null,
    "latitude": 49.416,
    "longitude": 6.217,
    "source_cite": "WNA/IAEA"
  },
  {
    "id": 119,
    "iso3": "FRA",
    "name": "Cattenom-4",
    "site_name": "Cattenom",
    "reactor_type": "PWR-P4REP1300",
    "net_electrical_mw": 1300.0,
    "status": "operational",
    "commissioning_year": 1992,
    "shutdown_year": null,
    "latitude": 49.416,
    "longitude": 6.217,
    "source_cite": "WNA/IAEA"
  },
  {
    "id": 120,
    "iso3": "CHN",
    "name": "CEFR",
    "site_name": "CEFR",
    "reactor_type": "FBR-BN-20",
    "net_electrical_mw": 20.0,
    "status": "operational",
    "commissioning_year": null,
    "shutdown_year": null,
    "latitude": 39.739,
    "longitude": 116.03,
    "source_cite": "WNA/IAEA"
  },
  {
    "id": 121,
    "iso3": "ROU",
    "name": "Cernavoda-1",
    "site_name": "Cernavoda",
    "reactor_type": "PHWR-CANDU6",
    "net_electrical_mw": 650.0,
    "status": "operational",
    "commissioning_year": 1996,
    "shutdown_year": null,
    "latitude": 44.322,
    "longitude": 28.061,
    "source_cite": "WNA/IAEA"
  },
  {
    "id": 122,
    "iso3": "ROU",
    "name": "Cernavoda-2",
    "site_name": "Cernavoda",
    "reactor_type": "PHWR-CANDU6",
    "net_electrical_mw": 650.0,
    "status": "operational",
    "commissioning_year": 2007,
    "shutdown_year": null,
    "latitude": 44.322,
    "longitude": 28.061,
    "source_cite": "WNA/IAEA"
  },
  {
    "id": 123,
    "iso3": "ROU",
    "name": "Cernavoda-3",
    "site_name": "Cernavoda",
    "reactor_type": "PHWR",
    "net_electrical_mw": 655.0,
    "status": "suspended_construction",
    "commissioning_year": null,
    "shutdown_year": null,
    "latitude": 44.322,
    "longitude": 28.061,
    "source_cite": "WNA/IAEA/Wikipedia"
  },
  {
    "id": 124,
    "iso3": "CHN",
    "name": "Changjiang-1",
    "site_name": "Changjiang",
    "reactor_type": "PWR-CNP-600",
    "net_electrical_mw": 601.0,
    "status": "operational",
    "commissioning_year": 2015,
    "shutdown_year": null,
    "latitude": 19.46075,
    "longitude": 108.899917,
    "source_cite": "WNA/IAEA/Wikipedia"
  },
  {
    "id": 125,
    "iso3": "CHN",
    "name": "Changjiang-2",
    "site_name": "Changjiang",
    "reactor_type": "PWR-CNP-600",
    "net_electrical_mw": 601.0,
    "status": "operational",
    "commissioning_year": 2016,
    "shutdown_year": null,
    "latitude": 19.46075,
    "longitude": 108.899917,
    "source_cite": "WNA/IAEA/Wikipedia"
  },
  {
    "id": 126,
    "iso3": "GBR",
    "name": "Chapelcross-1",
    "site_name": "Chapelcross",
    "reactor_type": "GCR-MAGNOX",
    "net_electrical_mw": 35.0,
    "status": "shutdown",
    "commissioning_year": 1959,
    "shutdown_year": 2004,
    "latitude": 55.014,
    "longitude": -3.223,
    "source_cite": "WNA/IAEA"
  },
  {
    "id": 127,
    "iso3": "GBR",
    "name": "Chapelcross-2",
    "site_name": "Chapelcross",
    "reactor_type": "GCR-MAGNOX",
    "net_electrical_mw": 35.0,
    "status": "shutdown",
    "commissioning_year": 1959,
    "shutdown_year": 2004,
    "latitude": 55.014,
    "longitude": -3.223,
    "source_cite": "WNA/IAEA"
  },
  {
    "id": 128,
    "iso3": "GBR",
    "name": "Chapelcross-3",
    "site_name": "Chapelcross",
    "reactor_type": "GCR-MAGNOX",
    "net_electrical_mw": 35.0,
    "status": "shutdown",
    "commissioning_year": 1959,
    "shutdown_year": 2004,
    "latitude": 55.014,
    "longitude": -3.223,
    "source_cite": "WNA/IAEA"
  },
  {
    "id": 129,
    "iso3": "GBR",
    "name": "Chapelcross-4",
    "site_name": "Chapelcross",
    "reactor_type": "GCR-MAGNOX",
    "net_electrical_mw": 35.0,
    "status": "shutdown",
    "commissioning_year": 1960,
    "shutdown_year": 2004,
    "latitude": 55.014,
    "longitude": -3.223,
    "source_cite": "WNA/IAEA"
  },
  {
    "id": 130,
    "iso3": "PAK",
    "name": "CHASNUPP-1",
    "site_name": "CHASNUPP",
    "reactor_type": "PWR-CNP-300",
    "net_electrical_mw": 300.0,
    "status": "operational",
    "commissioning_year": 2000,
    "shutdown_year": null,
    "latitude": 32.392,
    "longitude": 71.463,
    "source_cite": "WNA/IAEA"
  },
  {
    "id": 131,
    "iso3": "PAK",
    "name": "CHASNUPP-2",
    "site_name": "CHASNUPP",
    "reactor_type": "PWR-CNP-300",
    "net_electrical_mw": 300.0,
    "status": "operational",
    "commissioning_year": 2011,
    "shutdown_year": null,
    "latitude": 32.392,
    "longitude": 71.463,
    "source_cite": "WNA/IAEA"
  },
  {
    "id": 132,
    "iso3": "PAK",
    "name": "CHASNUPP-3",
    "site_name": "CHASNUPP",
    "reactor_type": "PWR-CNP-300",
    "net_electrical_mw": 315.0,
    "status": "operational",
    "commissioning_year": 2016,
    "shutdown_year": null,
    "latitude": 32.392,
    "longitude": 71.465,
    "source_cite": "WNA/IAEA"
  },
  {
    "id": 133,
    "iso3": "PAK",
    "name": "CHASNUPP-4",
    "site_name": "CHASNUPP",
    "reactor_type": "PWR-CNP-300",
    "net_electrical_mw": 313.0,
    "status": "operational",
    "commissioning_year": 2017,
    "shutdown_year": null,
    "latitude": 32.391944,
    "longitude": 71.461667,
    "source_cite": "IAEA"
  },
  {
    "id": 134,
    "iso3": "UKR",
    "name": "Chernobyl-1",
    "site_name": "Chernobyl",
    "reactor_type": "LWGR-RBMK",
    "net_electrical_mw": 925.0,
    "status": "shutdown",
    "commissioning_year": 1978,
    "shutdown_year": 1996,
    "latitude": 51.389,
    "longitude": 30.103,
    "source_cite": "WNA/IAEA"
  },
  {
    "id": 135,
    "iso3": "UKR",
    "name": "Chernobyl-2",
    "site_name": "Chernobyl",
    "reactor_type": "LWGR-RBMK",
    "net_electrical_mw": 925.0,
    "status": "shutdown",
    "commissioning_year": 1979,
    "shutdown_year": 1991,
    "latitude": 51.389,
    "longitude": 30.103,
    "source_cite": "WNA/IAEA"
  },
  {
    "id": 136,
    "iso3": "UKR",
    "name": "Chernobyl-3",
    "site_name": "Chernobyl",
    "reactor_type": "LWGR-RBMK",
    "net_electrical_mw": 925.0,
    "status": "shutdown",
    "commissioning_year": 1982,
    "shutdown_year": 2000,
    "latitude": 51.389,
    "longitude": 30.103,
    "source_cite": "WNA/IAEA"
  },
  {
    "id": 137,
    "iso3": "UKR",
    "name": "Chernobyl-4",
    "site_name": "Chernobyl",
    "reactor_type": "LWGR-RBMK",
    "net_electrical_mw": 925.0,
    "status": "shutdown",
    "commissioning_year": 1984,
    "shutdown_year": 1986,
    "latitude": 51.389,
    "longitude": 30.103,
    "source_cite": "WNA/IAEA"
  },
  {
    "id": 138,
    "iso3": "TWN",
    "name": "Chin-Shan-1",
    "site_name": "Chin-Shan",
    "reactor_type": "BWR-BWR-4(Mark1)",
    "net_electrical_mw": 604.0,
    "status": "shutdown",
    "commissioning_year": 1978,
    "shutdown_year": 2018,
    "latitude": 25.292,
    "longitude": 121.567,
    "source_cite": "WNA/IAEA"
  },
  {
    "id": 139,
    "iso3": "TWN",
    "name": "Chin-Shan-2",
    "site_name": "Chin-Shan",
    "reactor_type": "BWR-BWR-4(Mark1)",
    "net_electrical_mw": 604.0,
    "status": "shutdown",
    "commissioning_year": 1979,
    "shutdown_year": 2019,
    "latitude": 25.292,
    "longitude": 121.567,
    "source_cite": "WNA/IAEA"
  },
  {
    "id": 140,
    "iso3": "FRA",
    "name": "Chinon-A1",
    "site_name": "Chinon-A1",
    "reactor_type": "GCR-UNGG",
    "net_electrical_mw": 68.0,
    "status": "shutdown",
    "commissioning_year": 1964,
    "shutdown_year": 1973,
    "latitude": 47.232,
    "longitude": 0.167,
    "source_cite": "WNA/IAEA"
  },
  {
    "id": 141,
    "iso3": "FRA",
    "name": "Chinon-A2",
    "site_name": "Chinon-A2",
    "reactor_type": "GCR-UNGG",
    "net_electrical_mw": 170.0,
    "status": "shutdown",
    "commissioning_year": 1965,
    "shutdown_year": 1985,
    "latitude": 47.232,
    "longitude": 0.167,
    "source_cite": "WNA/IAEA"
  },
  {
    "id": 142,
    "iso3": "FRA",
    "name": "Chinon-A3",
    "site_name": "Chinon-A3",
    "reactor_type": "GCR-UNGG",
    "net_electrical_mw": 480.0,
    "status": "shutdown",
    "commissioning_year": 1966,
    "shutdown_year": 1990,
    "latitude": 47.232,
    "longitude": 0.167,
    "source_cite": "WNA/IAEA"
  },
  {
    "id": 143,
    "iso3": "FRA",
    "name": "Chinon-B1",
    "site_name": "Chinon-B1",
    "reactor_type": "PWR-CP2",
    "net_electrical_mw": 870.0,
    "status": "operational",
    "commissioning_year": 1984,
    "shutdown_year": null,
    "latitude": 47.232,
    "longitude": 0.167,
    "source_cite": "WNA/IAEA"
  },
  {
    "id": 144,
    "iso3": "FRA",
    "name": "Chinon-B2",
    "site_name": "Chinon-B2",
    "reactor_type": "PWR-CP2",
    "net_electrical_mw": 870.0,
    "status": "operational",
    "commissioning_year": 1984,
    "shutdown_year": null,
    "latitude": 47.232,
    "longitude": 0.167,
    "source_cite": "WNA/IAEA"
  },
  {
    "id": 145,
    "iso3": "FRA",
    "name": "Chinon-B3",
    "site_name": "Chinon-B3",
    "reactor_type": "PWR-CP2",
    "net_electrical_mw": 905.0,
    "status": "operational",
    "commissioning_year": 1987,
    "shutdown_year": null,
    "latitude": 47.232,
    "longitude": 0.167,
    "source_cite": "WNA/IAEA"
  },
  {
    "id": 146,
    "iso3": "FRA",
    "name": "Chinon-B4",
    "site_name": "Chinon-B4",
    "reactor_type": "PWR-CP2",
    "net_electrical_mw": 905.0,
    "status": "operational",
    "commissioning_year": 1988,
    "shutdown_year": null,
    "latitude": 47.232,
    "longitude": 0.167,
    "source_cite": "WNA/IAEA"
  },
  {
    "id": 147,
    "iso3": "FRA",
    "name": "Chooz-A",
    "site_name": "Chooz-A",
    "reactor_type": "PWR-CHOOZ-A",
    "net_electrical_mw": 280.0,
    "status": "shutdown",
    "commissioning_year": 1967,
    "shutdown_year": 1991,
    "latitude": 50.086,
    "longitude": 4.792,
    "source_cite": "WNA/IAEA"
  },
  {
    "id": 148,
    "iso3": "FRA",
    "name": "Chooz-B1",
    "site_name": "Chooz-B1",
    "reactor_type": "PWR-N4REP1450",
    "net_electrical_mw": 1455.0,
    "status": "operational",
    "commissioning_year": 2000,
    "shutdown_year": null,
    "latitude": 50.086,
    "longitude": 4.792,
    "source_cite": "WNA/IAEA"
  },
  {
    "id": 149,
    "iso3": "FRA",
    "name": "Chooz-B2",
    "site_name": "Chooz-B2",
    "reactor_type": "PWR-N4REP1450",
    "net_electrical_mw": 1455.0,
    "status": "operational",
    "commissioning_year": 2000,
    "shutdown_year": null,
    "latitude": 50.086,
    "longitude": 4.792,
    "source_cite": "WNA/IAEA"
  },
  {
    "id": 150,
    "iso3": "FRA",
    "name": "Civaux-1",
    "site_name": "Civaux",
    "reactor_type": "PWR-N4REP1450",
    "net_electrical_mw": 1450.0,
    "status": "operational",
    "commissioning_year": 2002,
    "shutdown_year": null,
    "latitude": 46.457,
    "longitude": 0.654,
    "source_cite": "WNA/IAEA"
  },
  {
    "id": 151,
    "iso3": "FRA",
    "name": "Civaux-2",
    "site_name": "Civaux",
    "reactor_type": "PWR-N4REP1450",
    "net_electrical_mw": 1450.0,
    "status": "operational",
    "commissioning_year": 2002,
    "shutdown_year": null,
    "latitude": 46.457,
    "longitude": 0.654,
    "source_cite": "WNA/IAEA"
  },
  {
    "id": 152,
    "iso3": "USA",
    "name": "Clinton-1",
    "site_name": "Clinton",
    "reactor_type": "BWR-BWR-6(Mark3)",
    "net_electrical_mw": 950.0,
    "status": "operational",
    "commissioning_year": 1987,
    "shutdown_year": null,
    "latitude": 40.172,
    "longitude": -88.834,
    "source_cite": "WNA/IAEA"
  },
  {
    "id": 153,
    "iso3": "ESP",
    "name": "Cofrentes",
    "site_name": "Cofrentes",
    "reactor_type": "BWR-BWR-6(Mark3)",
    "net_electrical_mw": 939.0,
    "status": "operational",
    "commissioning_year": 1985,
    "shutdown_year": null,
    "latitude": 39.216,
    "longitude": -1.051,
    "source_cite": "WNA/IAEA"
  },
  {
    "id": 154,
    "iso3": "USA",
    "name": "Columbia",
    "site_name": "Columbia",
    "reactor_type": "BWR-BWR-5(Mark2)",
    "net_electrical_mw": 1100.0,
    "status": "operational",
    "commissioning_year": 1984,
    "shutdown_year": null,
    "latitude": 46.471,
    "longitude": -119.333,
    "source_cite": "WNA/IAEA"
  },
  {
    "id": 155,
    "iso3": "USA",
    "name": "Comanche-Peak-1",
    "site_name": "Comanche-Peak",
    "reactor_type": "PWR-WH4LP(DRYAMB)",
    "net_electrical_mw": 1150.0,
    "status": "operational",
    "commissioning_year": 1990,
    "shutdown_year": null,
    "latitude": 32.301,
    "longitude": -97.787,
    "source_cite": "WNA/IAEA"
  },
  {
    "id": 156,
    "iso3": "USA",
    "name": "Comanche-Peak-2",
    "site_name": "Comanche-Peak",
    "reactor_type": "PWR-WH4LP(DRYAMB)",
    "net_electrical_mw": 1150.0,
    "status": "operational",
    "commissioning_year": 1993,
    "shutdown_year": null,
    "latitude": 32.301,
    "longitude": -97.787,
    "source_cite": "WNA/IAEA"
  },
  {
    "id": 157,
    "iso3": "USA",
    "name": "Cooper",
    "site_name": "Cooper",
    "reactor_type": "BWR-BWR-4(Mark1)",
    "net_electrical_mw": 778.0,
    "status": "operational",
    "commissioning_year": 1974,
    "shutdown_year": null,
    "latitude": 40.361,
    "longitude": -95.643,
    "source_cite": "WNA/IAEA"
  },
  {
    "id": 158,
    "iso3": "FRA",
    "name": "Cruas-1",
    "site_name": "Cruas",
    "reactor_type": "PWR-CP2",
    "net_electrical_mw": 880.0,
    "status": "operational",
    "commissioning_year": 1984,
    "shutdown_year": null,
    "latitude": 44.634,
    "longitude": 4.757,
    "source_cite": "WNA/IAEA"
  },
  {
    "id": 159,
    "iso3": "FRA",
    "name": "Cruas-2",
    "site_name": "Cruas",
    "reactor_type": "PWR-CP2",
    "net_electrical_mw": 915.0,
    "status": "operational",
    "commissioning_year": 1985,
    "shutdown_year": null,
    "latitude": 44.634,
    "longitude": 4.757,
    "source_cite": "WNA/IAEA"
  },
  {
    "id": 160,
    "iso3": "FRA",
    "name": "Cruas-3",
    "site_name": "Cruas",
    "reactor_type": "PWR-CP2",
    "net_electrical_mw": 880.0,
    "status": "operational",
    "commissioning_year": 1984,
    "shutdown_year": null,
    "latitude": 44.634,
    "longitude": 4.757,
    "source_cite": "WNA/IAEA"
  },
  {
    "id": 161,
    "iso3": "FRA",
    "name": "Cruas-4",
    "site_name": "Cruas",
    "reactor_type": "PWR-CP2",
    "net_electrical_mw": 880.0,
    "status": "operational",
    "commissioning_year": 1985,
    "shutdown_year": null,
    "latitude": 44.634,
    "longitude": 4.757,
    "source_cite": "WNA/IAEA"
  },
  {
    "id": 162,
    "iso3": "USA",
    "name": "Crystal-River-3",
    "site_name": "Crystal-River",
    "reactor_type": "PWR-B&WLLP(DRYAMB)",
    "net_electrical_mw": 825.0,
    "status": "shutdown",
    "commissioning_year": 1977,
    "shutdown_year": 2013,
    "latitude": 28.966,
    "longitude": -82.697,
    "source_cite": "WNA/IAEA"
  },
  {
    "id": 163,
    "iso3": "FRA",
    "name": "Dampierre-1",
    "site_name": "Dampierre",
    "reactor_type": "PWR-CP1",
    "net_electrical_mw": 890.0,
    "status": "operational",
    "commissioning_year": 1980,
    "shutdown_year": null,
    "latitude": 47.732,
    "longitude": 2.513,
    "source_cite": "WNA/IAEA"
  },
  {
    "id": 164,
    "iso3": "FRA",
    "name": "Dampierre-2",
    "site_name": "Dampierre",
    "reactor_type": "PWR-CP1",
    "net_electrical_mw": 890.0,
    "status": "operational",
    "commissioning_year": 1981,
    "shutdown_year": null,
    "latitude": 47.732,
    "longitude": 2.513,
    "source_cite": "WNA/IAEA"
  },
  {
    "id": 165,
    "iso3": "FRA",
    "name": "Dampierre-3",
    "site_name": "Dampierre",
    "reactor_type": "PWR-CP1",
    "net_electrical_mw": 890.0,
    "status": "operational",
    "commissioning_year": 1981,
    "shutdown_year": null,
    "latitude": 47.732,
    "longitude": 2.513,
    "source_cite": "WNA/IAEA"
  },
  {
    "id": 166,
    "iso3": "FRA",
    "name": "Dampierre-4",
    "site_name": "Dampierre",
    "reactor_type": "PWR-CP1",
    "net_electrical_mw": 890.0,
    "status": "operational",
    "commissioning_year": 1981,
    "shutdown_year": null,
    "latitude": 47.732,
    "longitude": 2.513,
    "source_cite": "WNA/IAEA"
  },
  {
    "id": 167,
    "iso3": "IRN",
    "name": "Darkhovin",
    "site_name": "Darkhovin",
    "reactor_type": "PWR",
    "net_electrical_mw": null,
    "status": "unknown",
    "commissioning_year": null,
    "shutdown_year": null,
    "latitude": 30.707778,
    "longitude": 48.38,
    "source_cite": "Wikipedia"
  },
  {
    "id": 168,
    "iso3": "CAN",
    "name": "Darlington-1",
    "site_name": "Darlington",
    "reactor_type": "PHWR-CANDU850",
    "net_electrical_mw": 881.0,
    "status": "operational",
    "commissioning_year": 1992,
    "shutdown_year": null,
    "latitude": 43.867,
    "longitude": -78.724,
    "source_cite": "WNA/IAEA"
  },
  {
    "id": 169,
    "iso3": "CAN",
    "name": "Darlington-2",
    "site_name": "Darlington",
    "reactor_type": "PHWR-CANDU850",
    "net_electrical_mw": 881.0,
    "status": "operational",
    "commissioning_year": 1990,
    "shutdown_year": null,
    "latitude": 43.867,
    "longitude": -78.724,
    "source_cite": "WNA/IAEA"
  },
  {
    "id": 170,
    "iso3": "CAN",
    "name": "Darlington-3",
    "site_name": "Darlington",
    "reactor_type": "PHWR-CANDU850",
    "net_electrical_mw": 881.0,
    "status": "operational",
    "commissioning_year": 1993,
    "shutdown_year": null,
    "latitude": 43.867,
    "longitude": -78.724,
    "source_cite": "WNA/IAEA"
  },
  {
    "id": 171,
    "iso3": "CAN",
    "name": "Darlington-4",
    "site_name": "Darlington",
    "reactor_type": "PHWR-CANDU850",
    "net_electrical_mw": 881.0,
    "status": "operational",
    "commissioning_year": 1993,
    "shutdown_year": null,
    "latitude": 43.867,
    "longitude": -78.724,
    "source_cite": "WNA/IAEA"
  },
  {
    "id": 172,
    "iso3": "CAN",
    "name": "Darlington-5",
    "site_name": "Darlington",
    "reactor_type": "PHWR",
    "net_electrical_mw": null,
    "status": "planned",
    "commissioning_year": null,
    "shutdown_year": null,
    "latitude": 43.8644,
    "longitude": -78.7244,
    "source_cite": "WNA"
  },
  {
    "id": 173,
    "iso3": "CAN",
    "name": "Darlington-6",
    "site_name": "Darlington",
    "reactor_type": "PHWR",
    "net_electrical_mw": null,
    "status": "planned",
    "commissioning_year": null,
    "shutdown_year": null,
    "latitude": 43.8633,
    "longitude": -78.7244,
    "source_cite": "WNA"
  },
  {
    "id": 174,
    "iso3": "USA",
    "name": "Davis-Besse-1",
    "site_name": "Davis-Besse",
    "reactor_type": "PWR-B&WRLP(DRYAMB)",
    "net_electrical_mw": 906.0,
    "status": "operational",
    "commissioning_year": 1978,
    "shutdown_year": null,
    "latitude": 41.597,
    "longitude": -83.092,
    "source_cite": "WNA/IAEA"
  },
  {
    "id": 175,
    "iso3": "CHN",
    "name": "Daya-Bay-1",
    "site_name": "Daya-Bay",
    "reactor_type": "PWR-M310",
    "net_electrical_mw": 930.0,
    "status": "operational",
    "commissioning_year": 1994,
    "shutdown_year": null,
    "latitude": 22.599,
    "longitude": 114.544,
    "source_cite": "WNA/IAEA"
  },
  {
    "id": 176,
    "iso3": "CHN",
    "name": "Daya-Bay-2",
    "site_name": "Daya-Bay",
    "reactor_type": "PWR-M310",
    "net_electrical_mw": 930.0,
    "status": "operational",
    "commissioning_year": 1994,
    "shutdown_year": null,
    "latitude": 22.599,
    "longitude": 114.544,
    "source_cite": "WNA/IAEA"
  },
  {
    "id": 177,
    "iso3": "USA",
    "name": "Diablo-Canyon-1",
    "site_name": "Diablo-Canyon",
    "reactor_type": "PWR-WH4LP(DRYAMB)",
    "net_electrical_mw": 1084.0,
    "status": "operational",
    "commissioning_year": 1985,
    "shutdown_year": null,
    "latitude": 35.212,
    "longitude": -120.854,
    "source_cite": "WNA/IAEA"
  },
  {
    "id": 178,
    "iso3": "USA",
    "name": "Diablo-Canyon-2",
    "site_name": "Diablo-Canyon",
    "reactor_type": "PWR-WH4LP(DRYAMB)",
    "net_electrical_mw": 1106.0,
    "status": "operational",
    "commissioning_year": 1986,
    "shutdown_year": null,
    "latitude": 35.212,
    "longitude": -120.854,
    "source_cite": "WNA/IAEA"
  },
  {
    "id": 179,
    "iso3": "BEL",
    "name": "Doel-1",
    "site_name": "Doel",
    "reactor_type": "PWR-WH2LP",
    "net_electrical_mw": 392.0,
    "status": "operational",
    "commissioning_year": 1975,
    "shutdown_year": null,
    "latitude": 51.323,
    "longitude": 4.259,
    "source_cite": "WNA/IAEA"
  },
  {
    "id": 180,
    "iso3": "BEL",
    "name": "Doel-2",
    "site_name": "Doel",
    "reactor_type": "PWR-WH2LP",
    "net_electrical_mw": 445.0,
    "status": "operational",
    "commissioning_year": 1975,
    "shutdown_year": null,
    "latitude": 51.323,
    "longitude": 4.259,
    "source_cite": "WNA/IAEA"
  },
  {
    "id": 181,
    "iso3": "BEL",
    "name": "Doel-3",
    "site_name": "Doel",
    "reactor_type": "PWR-WH3LP",
    "net_electrical_mw": 890.0,
    "status": "shutdown",
    "commissioning_year": 1982,
    "shutdown_year": 2022,
    "latitude": 51.323,
    "longitude": 4.259,
    "source_cite": "WNA/IAEA"
  },
  {
    "id": 182,
    "iso3": "BEL",
    "name": "Doel-4",
    "site_name": "Doel",
    "reactor_type": "PWR-WH3LP",
    "net_electrical_mw": 1000.0,
    "status": "operational",
    "commissioning_year": 1985,
    "shutdown_year": null,
    "latitude": 51.323,
    "longitude": 4.259,
    "source_cite": "WNA/IAEA"
  },
  {
    "id": 183,
    "iso3": "USA",
    "name": "Donald-Cook-1",
    "site_name": "Donald-Cook",
    "reactor_type": "PWR-WH4LP(ICECDN)",
    "net_electrical_mw": 1030.0,
    "status": "operational",
    "commissioning_year": 1975,
    "shutdown_year": null,
    "latitude": 41.975,
    "longitude": -86.564,
    "source_cite": "WNA/IAEA"
  },
  {
    "id": 184,
    "iso3": "USA",
    "name": "Donald-Cook-2",
    "site_name": "Donald-Cook",
    "reactor_type": "PWR-WH4LP(ICECDN)",
    "net_electrical_mw": 1100.0,
    "status": "operational",
    "commissioning_year": 1978,
    "shutdown_year": null,
    "latitude": 41.975,
    "longitude": -86.564,
    "source_cite": "WNA/IAEA"
  },
  {
    "id": 185,
    "iso3": "CAN",
    "name": "Douglas-Point",
    "site_name": "Douglas-Point",
    "reactor_type": "PHWR-CANDU200",
    "net_electrical_mw": 203.0,
    "status": "shutdown",
    "commissioning_year": 1968,
    "shutdown_year": 1984,
    "latitude": 44.326,
    "longitude": -81.601,
    "source_cite": "WNA/IAEA"
  },
  {
    "id": 186,
    "iso3": "GBR",
    "name": "Dounreay-DFR",
    "site_name": "Dounreay-DFR",
    "reactor_type": "FBR",
    "net_electrical_mw": 14.0,
    "status": "shutdown",
    "commissioning_year": 1962,
    "shutdown_year": 1977,
    "latitude": 58.577,
    "longitude": -3.745,
    "source_cite": "WNA/IAEA"
  },
  {
    "id": 187,
    "iso3": "GBR",
    "name": "Dounreay-PFR",
    "site_name": "Dounreay-PFR",
    "reactor_type": "FBR",
    "net_electrical_mw": 234.0,
    "status": "shutdown",
    "commissioning_year": 1976,
    "shutdown_year": 1994,
    "latitude": 58.577,
    "longitude": -3.745,
    "source_cite": "WNA/IAEA"
  },
  {
    "id": 188,
    "iso3": "USA",
    "name": "Dresden-1",
    "site_name": "Dresden",
    "reactor_type": "BWR",
    "net_electrical_mw": 192.0,
    "status": "shutdown",
    "commissioning_year": 1960,
    "shutdown_year": 1978,
    "latitude": 41.353,
    "longitude": -88.349,
    "source_cite": "WNA/IAEA"
  },
  {
    "id": 189,
    "iso3": "USA",
    "name": "Dresden-2",
    "site_name": "Dresden",
    "reactor_type": "BWR-BWR-3(Mark1)",
    "net_electrical_mw": 794.0,
    "status": "operational",
    "commissioning_year": 1970,
    "shutdown_year": null,
    "latitude": 41.353,
    "longitude": -88.349,
    "source_cite": "WNA/IAEA"
  },
  {
    "id": 190,
    "iso3": "USA",
    "name": "Dresden-3",
    "site_name": "Dresden",
    "reactor_type": "BWR-BWR-3(Mark1)",
    "net_electrical_mw": 794.0,
    "status": "operational",
    "commissioning_year": 1971,
    "shutdown_year": null,
    "latitude": 41.353,
    "longitude": -88.349,
    "source_cite": "WNA/IAEA"
  },
  {
    "id": 191,
    "iso3": "USA",
    "name": "Duane-Arnold-1",
    "site_name": "Duane-Arnold",
    "reactor_type": "BWR-BWR-4(Mark1)",
    "net_electrical_mw": 601.0,
    "status": "shutdown",
    "commissioning_year": 1975,
    "shutdown_year": 2020,
    "latitude": 42.101,
    "longitude": -91.776,
    "source_cite": "WNA/IAEA"
  },
  {
    "id": 192,
    "iso3": "CZE",
    "name": "Dukovany-1",
    "site_name": "Dukovany",
    "reactor_type": "PWR-VVERV-213",
    "net_electrical_mw": 420.0,
    "status": "operational",
    "commissioning_year": 1985,
    "shutdown_year": null,
    "latitude": 49.089,
    "longitude": 16.149,
    "source_cite": "WNA/IAEA"
  },
  {
    "id": 193,
    "iso3": "CZE",
    "name": "Dukovany-2",
    "site_name": "Dukovany",
    "reactor_type": "PWR-VVERV-213",
    "net_electrical_mw": 420.0,
    "status": "operational",
    "commissioning_year": 1986,
    "shutdown_year": null,
    "latitude": 49.089,
    "longitude": 16.149,
    "source_cite": "WNA/IAEA"
  },
  {
    "id": 194,
    "iso3": "CZE",
    "name": "Dukovany-3",
    "site_name": "Dukovany",
    "reactor_type": "PWR-VVERV-213",
    "net_electrical_mw": 420.0,
    "status": "operational",
    "commissioning_year": 1986,
    "shutdown_year": null,
    "latitude": 49.089,
    "longitude": 16.149,
    "source_cite": "WNA/IAEA"
  },
  {
    "id": 195,
    "iso3": "CZE",
    "name": "Dukovany-4",
    "site_name": "Dukovany",
    "reactor_type": "PWR-VVERV-213",
    "net_electrical_mw": 420.0,
    "status": "operational",
    "commissioning_year": 1987,
    "shutdown_year": null,
    "latitude": 49.089,
    "longitude": 16.149,
    "source_cite": "WNA/IAEA"
  },
  {
    "id": 196,
    "iso3": "GBR",
    "name": "Dungeness-A1",
    "site_name": "Dungeness-A1",
    "reactor_type": "GCR-MAGNOX",
    "net_electrical_mw": 275.0,
    "status": "shutdown",
    "commissioning_year": 1965,
    "shutdown_year": 2006,
    "latitude": 50.914,
    "longitude": 0.962,
    "source_cite": "WNA/IAEA"
  },
  {
    "id": 197,
    "iso3": "GBR",
    "name": "Dungeness-A2",
    "site_name": "Dungeness-A2",
    "reactor_type": "GCR-MAGNOX",
    "net_electrical_mw": 275.0,
    "status": "shutdown",
    "commissioning_year": 1965,
    "shutdown_year": 2006,
    "latitude": 50.914,
    "longitude": 0.962,
    "source_cite": "WNA/IAEA"
  },
  {
    "id": 198,
    "iso3": "GBR",
    "name": "Dungeness-B1",
    "site_name": "Dungeness-B1",
    "reactor_type": "GCR-AGR",
    "net_electrical_mw": 607.0,
    "status": "shutdown",
    "commissioning_year": 1985,
    "shutdown_year": 2021,
    "latitude": 50.914,
    "longitude": 0.962,
    "source_cite": "WNA/IAEA"
  },
  {
    "id": 199,
    "iso3": "GBR",
    "name": "Dungeness-B2",
    "site_name": "Dungeness-B2",
    "reactor_type": "GCR-AGR",
    "net_electrical_mw": 607.0,
    "status": "shutdown",
    "commissioning_year": 1989,
    "shutdown_year": 2021,
    "latitude": 50.914,
    "longitude": 0.962,
    "source_cite": "WNA/IAEA"
  },
  {
    "id": 200,
    "iso3": "EGY",
    "name": "El-Dabaa-1",
    "site_name": "El-Dabaa",
    "reactor_type": "PWR-VVER-1200",
    "net_electrical_mw": 1100.0,
    "status": "construction",
    "commissioning_year": null,
    "shutdown_year": null,
    "latitude": 31.044167,
    "longitude": 28.497778,
    "source_cite": "WNA/IAEA/Wikipedia"
  },
  {
    "id": 201,
    "iso3": "FRA",
    "name": "EL-4",
    "site_name": "EL",
    "reactor_type": "HWGCR-Monts-D'Arree",
    "net_electrical_mw": 70.0,
    "status": "shutdown",
    "commissioning_year": 1968,
    "shutdown_year": 1985,
    "latitude": 48.35,
    "longitude": -3.866667,
    "source_cite": "IAEA"
  },
  {
    "id": 202,
    "iso3": "USA",
    "name": "Elk-River",
    "site_name": "Elk-River",
    "reactor_type": "BWR",
    "net_electrical_mw": 22.0,
    "status": "shutdown",
    "commissioning_year": 1964,
    "shutdown_year": 1968,
    "latitude": 45.297,
    "longitude": -93.557,
    "source_cite": "WNA/IAEA"
  },
  {
    "id": 203,
    "iso3": "ARG",
    "name": "Embalse",
    "site_name": "Embalse",
    "reactor_type": "PHWR-CANDU6",
    "net_electrical_mw": 608.0,
    "status": "operational",
    "commissioning_year": 1984,
    "shutdown_year": null,
    "latitude": -32.232,
    "longitude": -64.442,
    "source_cite": "WNA/IAEA"
  },
  {
    "id": 204,
    "iso3": "DEU",
    "name": "Emsland",
    "site_name": "Emsland",
    "reactor_type": "PWR-Konvoi",
    "net_electrical_mw": 1242.0,
    "status": "shutdown",
    "commissioning_year": 1988,
    "shutdown_year": 2023,
    "latitude": 52.471,
    "longitude": 7.322,
    "source_cite": "WNA/IAEA"
  },
  {
    "id": 205,
    "iso3": "ITA",
    "name": "Enrico-Fermi",
    "site_name": "Enrico-Fermi",
    "reactor_type": "PWR-WH4LP",
    "net_electrical_mw": 247.0,
    "status": "shutdown",
    "commissioning_year": 1965,
    "shutdown_year": 1990,
    "latitude": 45.183333,
    "longitude": 8.283333,
    "source_cite": "IAEA"
  },
  {
    "id": 206,
    "iso3": "USA",
    "name": "Enrico-Fermi-1",
    "site_name": "Enrico-Fermi",
    "reactor_type": "FBR-LiquidMetalFBR",
    "net_electrical_mw": 60.0,
    "status": "shutdown",
    "commissioning_year": 1966,
    "shutdown_year": 1972,
    "latitude": 41.96,
    "longitude": -83.257,
    "source_cite": "WNA/IAEA"
  },
  {
    "id": 207,
    "iso3": "USA",
    "name": "Enrico-Fermi-2",
    "site_name": "Enrico-Fermi",
    "reactor_type": "BWR-BWR-4(Mark1)",
    "net_electrical_mw": 1093.0,
    "status": "operational",
    "commissioning_year": 1988,
    "shutdown_year": null,
    "latitude": 41.96,
    "longitude": -83.257,
    "source_cite": "WNA/IAEA"
  },
  {
    "id": 208,
    "iso3": "CHN",
    "name": "Fangchenggang-1",
    "site_name": "Fangchenggang",
    "reactor_type": "PWR-CPR-1000",
    "net_electrical_mw": 1000.0,
    "status": "operational",
    "commissioning_year": 2016,
    "shutdown_year": null,
    "latitude": 21.6,
    "longitude": 108.3,
    "source_cite": "WNA/IAEA"
  },
  {
    "id": 209,
    "iso3": "CHN",
    "name": "Fangchenggang-2",
    "site_name": "Fangchenggang",
    "reactor_type": "PWR-CPR-1000",
    "net_electrical_mw": 1000.0,
    "status": "operational",
    "commissioning_year": 2016,
    "shutdown_year": null,
    "latitude": 21.6,
    "longitude": 108.3,
    "source_cite": "WNA/IAEA"
  },
  {
    "id": 210,
    "iso3": "CHN",
    "name": "Fangjiashan-1",
    "site_name": "Fangjiashan",
    "reactor_type": "PWR-CPR-1000",
    "net_electrical_mw": 1000.0,
    "status": "operational",
    "commissioning_year": 2014,
    "shutdown_year": null,
    "latitude": 30.416,
    "longitude": 120.951,
    "source_cite": "WNA/IAEA"
  },
  {
    "id": 211,
    "iso3": "CHN",
    "name": "Fangjiashan-2",
    "site_name": "Fangjiashan",
    "reactor_type": "PWR-CPR-1000",
    "net_electrical_mw": 1000.0,
    "status": "operational",
    "commissioning_year": 2015,
    "shutdown_year": null,
    "latitude": 30.416,
    "longitude": 120.951,
    "source_cite": "WNA/IAEA"
  },
  {
    "id": 212,
    "iso3": "USA",
    "name": "Farley-1",
    "site_name": "Farley",
    "reactor_type": "PWR-WH3LP(DRYAMB)",
    "net_electrical_mw": 829.0,
    "status": "operational",
    "commissioning_year": 1977,
    "shutdown_year": null,
    "latitude": 31.223,
    "longitude": -85.115,
    "source_cite": "WNA/IAEA"
  },
  {
    "id": 213,
    "iso3": "USA",
    "name": "Farley-2",
    "site_name": "Farley",
    "reactor_type": "PWR-WH3LP(DRYAMB)",
    "net_electrical_mw": 829.0,
    "status": "operational",
    "commissioning_year": 1981,
    "shutdown_year": null,
    "latitude": 31.223,
    "longitude": -85.115,
    "source_cite": "WNA/IAEA"
  },
  {
    "id": 214,
    "iso3": "FRA",
    "name": "Fessenheim-1",
    "site_name": "Fessenheim",
    "reactor_type": "PWR-CP0",
    "net_electrical_mw": 880.0,
    "status": "shutdown",
    "commissioning_year": 1978,
    "shutdown_year": 2020,
    "latitude": 47.903,
    "longitude": 7.564,
    "source_cite": "WNA/IAEA"
  },
  {
    "id": 215,
    "iso3": "FRA",
    "name": "Fessenheim-2",
    "site_name": "Fessenheim",
    "reactor_type": "PWR-CP0",
    "net_electrical_mw": 880.0,
    "status": "shutdown",
    "commissioning_year": 1978,
    "shutdown_year": 2020,
    "latitude": 47.903,
    "longitude": 7.564,
    "source_cite": "WNA/IAEA"
  },
  {
    "id": 216,
    "iso3": "USA",
    "name": "FitzPatrick",
    "site_name": "FitzPatrick",
    "reactor_type": "BWR-BWR-4(Mark1)",
    "net_electrical_mw": 821.0,
    "status": "operational",
    "commissioning_year": 1975,
    "shutdown_year": null,
    "latitude": 43.521,
    "longitude": -76.403,
    "source_cite": "WNA/IAEA"
  },
  {
    "id": 217,
    "iso3": "FRA",
    "name": "Flamanville-1",
    "site_name": "Flamanville",
    "reactor_type": "PWR-P4REP1300",
    "net_electrical_mw": 1330.0,
    "status": "operational",
    "commissioning_year": 1986,
    "shutdown_year": null,
    "latitude": 49.537,
    "longitude": -1.881,
    "source_cite": "WNA/IAEA"
  },
  {
    "id": 218,
    "iso3": "FRA",
    "name": "Flamanville-2",
    "site_name": "Flamanville",
    "reactor_type": "PWR-P4REP1300",
    "net_electrical_mw": 1330.0,
    "status": "operational",
    "commissioning_year": 1987,
    "shutdown_year": null,
    "latitude": 49.537,
    "longitude": -1.881,
    "source_cite": "WNA/IAEA"
  },
  {
    "id": 219,
    "iso3": "FRA",
    "name": "Flamanville-3",
    "site_name": "Flamanville",
    "reactor_type": "PWR-EPR",
    "net_electrical_mw": 1630.0,
    "status": "construction",
    "commissioning_year": null,
    "shutdown_year": null,
    "latitude": 49.537,
    "longitude": -1.881,
    "source_cite": "WNA/IAEA"
  },
  {
    "id": 220,
    "iso3": "SWE",
    "name": "Forsmark-1",
    "site_name": "Forsmark",
    "reactor_type": "BWR-AA-III,BWR-2500",
    "net_electrical_mw": 900.0,
    "status": "operational",
    "commissioning_year": 1980,
    "shutdown_year": null,
    "latitude": 60.405,
    "longitude": 18.168,
    "source_cite": "WNA/IAEA"
  },
  {
    "id": 221,
    "iso3": "SWE",
    "name": "Forsmark-2",
    "site_name": "Forsmark",
    "reactor_type": "BWR-AA-III,BWR-2500",
    "net_electrical_mw": 900.0,
    "status": "operational",
    "commissioning_year": 1981,
    "shutdown_year": null,
    "latitude": 60.405,
    "longitude": 18.168,
    "source_cite": "WNA/IAEA"
  },
  {
    "id": 222,
    "iso3": "SWE",
    "name": "Forsmark-3",
    "site_name": "Forsmark",
    "reactor_type": "BWR-AA-IV,BWR-3000",
    "net_electrical_mw": 1050.0,
    "status": "operational",
    "commissioning_year": 1985,
    "shutdown_year": null,
    "latitude": 60.405,
    "longitude": 18.168,
    "source_cite": "WNA/IAEA"
  },
  {
    "id": 223,
    "iso3": "USA",
    "name": "Fort-Calhoun-1",
    "site_name": "Fort-Calhoun",
    "reactor_type": "PWR-CE2LP",
    "net_electrical_mw": 478.0,
    "status": "shutdown",
    "commissioning_year": 1973,
    "shutdown_year": 2016,
    "latitude": 41.52,
    "longitude": -96.076,
    "source_cite": "WNA/IAEA"
  },
  {
    "id": 224,
    "iso3": "USA",
    "name": "Fort-St.-Vrain",
    "site_name": "Fort-St.-Vrain",
    "reactor_type": "HTGR",
    "net_electrical_mw": 330.0,
    "status": "shutdown",
    "commissioning_year": 1979,
    "shutdown_year": 1989,
    "latitude": 40.244,
    "longitude": -104.874,
    "source_cite": "WNA/IAEA"
  },
  {
    "id": 225,
    "iso3": "JPN",
    "name": "Fugen-ATR",
    "site_name": "Fugen-ATR",
    "reactor_type": "HWLWR-ATR",
    "net_electrical_mw": 148.0,
    "status": "shutdown",
    "commissioning_year": 1979,
    "shutdown_year": 2003,
    "latitude": 35.751,
    "longitude": 136.02,
    "source_cite": "WNA/IAEA"
  },
  {
    "id": 226,
    "iso3": "JPN",
    "name": "Fukushima-Daiichi-1",
    "site_name": "Fukushima-Daiichi",
    "reactor_type": "BWR-BWR-3",
    "net_electrical_mw": 439.0,
    "status": "shutdown",
    "commissioning_year": 1971,
    "shutdown_year": 2011,
    "latitude": 37.423,
    "longitude": 141.032,
    "source_cite": "WNA/IAEA"
  },
  {
    "id": 227,
    "iso3": "JPN",
    "name": "Fukushima-Daiichi-2",
    "site_name": "Fukushima-Daiichi",
    "reactor_type": "BWR-BWR-4",
    "net_electrical_mw": 760.0,
    "status": "shutdown",
    "commissioning_year": 1974,
    "shutdown_year": 2011,
    "latitude": 37.423,
    "longitude": 141.032,
    "source_cite": "WNA/IAEA"
  },
  {
    "id": 228,
    "iso3": "JPN",
    "name": "Fukushima-Daiichi-3",
    "site_name": "Fukushima-Daiichi",
    "reactor_type": "BWR-BWR-4",
    "net_electrical_mw": 760.0,
    "status": "shutdown",
    "commissioning_year": 1976,
    "shutdown_year": 2011,
    "latitude": 37.423,
    "longitude": 141.032,
    "source_cite": "WNA/IAEA"
  },
  {
    "id": 229,
    "iso3": "JPN",
    "name": "Fukushima-Daiichi-4",
    "site_name": "Fukushima-Daiichi",
    "reactor_type": "BWR-BWR-4",
    "net_electrical_mw": 760.0,
    "status": "shutdown",
    "commissioning_year": 1978,
    "shutdown_year": 2011,
    "latitude": 37.423,
    "longitude": 141.032,
    "source_cite": "WNA/IAEA"
  },
  {
    "id": 230,
    "iso3": "JPN",
    "name": "Fukushima-Daiichi-5",
    "site_name": "Fukushima-Daiichi",
    "reactor_type": "BWR-BWR-4",
    "net_electrical_mw": 760.0,
    "status": "shutdown",
    "commissioning_year": 1978,
    "shutdown_year": 2013,
    "latitude": 37.423,
    "longitude": 141.032,
    "source_cite": "WNA/IAEA"
  },
  {
    "id": 231,
    "iso3": "JPN",
    "name": "Fukushima-Daiichi-6",
    "site_name": "Fukushima-Daiichi",
    "reactor_type": "BWR-BWR-5",
    "net_electrical_mw": 1067.0,
    "status": "shutdown",
    "commissioning_year": 1979,
    "shutdown_year": 2013,
    "latitude": 37.423,
    "longitude": 141.032,
    "source_cite": "WNA/IAEA"
  },
  {
    "id": 232,
    "iso3": "JPN",
    "name": "Fukushima-Daini-1",
    "site_name": "Fukushima-Daini",
    "reactor_type": "BWR-BWR-5",
    "net_electrical_mw": 1067.0,
    "status": "shutdown",
    "commissioning_year": 1982,
    "shutdown_year": 2019,
    "latitude": 37.315,
    "longitude": 141.024,
    "source_cite": "WNA/IAEA"
  },
  {
    "id": 233,
    "iso3": "JPN",
    "name": "Fukushima-Daini-2",
    "site_name": "Fukushima-Daini",
    "reactor_type": "BWR-BWR-5",
    "net_electrical_mw": 1067.0,
    "status": "shutdown",
    "commissioning_year": 1984,
    "shutdown_year": 2019,
    "latitude": 37.315,
    "longitude": 141.024,
    "source_cite": "WNA/IAEA"
  },
  {
    "id": 234,
    "iso3": "JPN",
    "name": "Fukushima-Daini-3",
    "site_name": "Fukushima-Daini",
    "reactor_type": "BWR-BWR-5",
    "net_electrical_mw": 1067.0,
    "status": "shutdown",
    "commissioning_year": 1985,
    "shutdown_year": 2019,
    "latitude": 37.315,
    "longitude": 141.024,
    "source_cite": "WNA/IAEA"
  },
  {
    "id": 235,
    "iso3": "JPN",
    "name": "Fukushima-Daini-4",
    "site_name": "Fukushima-Daini",
    "reactor_type": "BWR-BWR-5",
    "net_electrical_mw": 1067.0,
    "status": "shutdown",
    "commissioning_year": 1987,
    "shutdown_year": 2019,
    "latitude": 37.315,
    "longitude": 141.024,
    "source_cite": "WNA/IAEA"
  },
  {
    "id": 236,
    "iso3": "CHN",
    "name": "Fuqing-1",
    "site_name": "Fuqing",
    "reactor_type": "PWR-CNP-1000",
    "net_electrical_mw": 1000.0,
    "status": "operational",
    "commissioning_year": 2014,
    "shutdown_year": null,
    "latitude": 25.443,
    "longitude": 119.453,
    "source_cite": "WNA/IAEA"
  },
  {
    "id": 237,
    "iso3": "CHN",
    "name": "Fuqing-2",
    "site_name": "Fuqing",
    "reactor_type": "PWR-CNP-1000",
    "net_electrical_mw": 1000.0,
    "status": "operational",
    "commissioning_year": 2015,
    "shutdown_year": null,
    "latitude": 25.443,
    "longitude": 119.453,
    "source_cite": "WNA/IAEA"
  },
  {
    "id": 238,
    "iso3": "CHN",
    "name": "Fuqing-3",
    "site_name": "Fuqing",
    "reactor_type": "PWR-CNP-1000",
    "net_electrical_mw": 1000.0,
    "status": "operational",
    "commissioning_year": 2016,
    "shutdown_year": null,
    "latitude": 25.720278,
    "longitude": 119.383889,
    "source_cite": "WNA/IAEA"
  },
  {
    "id": 239,
    "iso3": "CHN",
    "name": "Fuqing-4",
    "site_name": "Fuqing",
    "reactor_type": "PWR-CNP-1000",
    "net_electrical_mw": 1000.0,
    "status": "operational",
    "commissioning_year": 2017,
    "shutdown_year": null,
    "latitude": 25.720278,
    "longitude": 119.383889,
    "source_cite": "WNA/IAEA"
  },
  {
    "id": 240,
    "iso3": "CHN",
    "name": "Fuqing-5",
    "site_name": "Fuqing",
    "reactor_type": "PWR-HPR1000",
    "net_electrical_mw": 1075.0,
    "status": "operational",
    "commissioning_year": 2021,
    "shutdown_year": null,
    "latitude": 25.720278,
    "longitude": 119.383889,
    "source_cite": "WNA/IAEA"
  },
  {
    "id": 241,
    "iso3": "CHN",
    "name": "Fuqing-6",
    "site_name": "Fuqing",
    "reactor_type": "PWR-HPR1000",
    "net_electrical_mw": 1075.0,
    "status": "operational",
    "commissioning_year": 2022,
    "shutdown_year": null,
    "latitude": 25.720278,
    "longitude": 119.383889,
    "source_cite": "WNA/Wikipedia/IAEA"
  },
  {
    "id": 242,
    "iso3": "FRA",
    "name": "G-2",
    "site_name": "G",
    "reactor_type": "GCR",
    "net_electrical_mw": 36.0,
    "status": "shutdown",
    "commissioning_year": 1959,
    "shutdown_year": 1980,
    "latitude": 44.142,
    "longitude": 4.713,
    "source_cite": "WNA/IAEA"
  },
  {
    "id": 243,
    "iso3": "FRA",
    "name": "G-3",
    "site_name": "G",
    "reactor_type": "GCR",
    "net_electrical_mw": 36.0,
    "status": "shutdown",
    "commissioning_year": 1960,
    "shutdown_year": 1984,
    "latitude": 44.142,
    "longitude": 4.713,
    "source_cite": "WNA/IAEA"
  },
  {
    "id": 244,
    "iso3": "ITA",
    "name": "Garigliano",
    "site_name": "Garigliano",
    "reactor_type": "BWR-BWR-1",
    "net_electrical_mw": 150.0,
    "status": "shutdown",
    "commissioning_year": 1964,
    "shutdown_year": 1982,
    "latitude": 41.258,
    "longitude": 13.835,
    "source_cite": "WNA/IAEA"
  },
  {
    "id": 245,
    "iso3": "USA",
    "name": "GE-Vallecitos",
    "site_name": "GE-Vallecitos",
    "reactor_type": "BWR-25",
    "net_electrical_mw": 24.0,
    "status": "shutdown",
    "commissioning_year": 1957,
    "shutdown_year": 1963,
    "latitude": 37.613056,
    "longitude": -121.84,
    "source_cite": "IAEA"
  },
  {
    "id": 246,
    "iso3": "JPN",
    "name": "Genkai-1",
    "site_name": "Genkai",
    "reactor_type": "PWR-M(2-loop)",
    "net_electrical_mw": 529.0,
    "status": "shutdown",
    "commissioning_year": 1975,
    "shutdown_year": 2015,
    "latitude": 33.518,
    "longitude": 129.837,
    "source_cite": "WNA/IAEA"
  },
  {
    "id": 247,
    "iso3": "JPN",
    "name": "Genkai-2",
    "site_name": "Genkai",
    "reactor_type": "PWR-M(2-loop)",
    "net_electrical_mw": 529.0,
    "status": "shutdown",
    "commissioning_year": 1981,
    "shutdown_year": 2019,
    "latitude": 33.518,
    "longitude": 129.837,
    "source_cite": "WNA/IAEA"
  },
  {
    "id": 248,
    "iso3": "JPN",
    "name": "Genkai-3",
    "site_name": "Genkai",
    "reactor_type": "PWR-M(4-loop)",
    "net_electrical_mw": 1127.0,
    "status": "operational",
    "commissioning_year": 1994,
    "shutdown_year": null,
    "latitude": 33.518,
    "longitude": 129.837,
    "source_cite": "WNA/IAEA"
  },
  {
    "id": 249,
    "iso3": "JPN",
    "name": "Genkai-4",
    "site_name": "Genkai",
    "reactor_type": "PWR-M(4-loop)",
    "net_electrical_mw": 1127.0,
    "status": "operational",
    "commissioning_year": 1997,
    "shutdown_year": null,
    "latitude": 33.518,
    "longitude": 129.837,
    "source_cite": "WNA/IAEA"
  },
  {
    "id": 250,
    "iso3": "CAN",
    "name": "Gentilly-1",
    "site_name": "Gentilly",
    "reactor_type": "HWLWR-HWBLWR250",
    "net_electrical_mw": 250.0,
    "status": "shutdown",
    "commissioning_year": 1972,
    "shutdown_year": 1977,
    "latitude": 46.395,
    "longitude": -72.357,
    "source_cite": "WNA/IAEA"
  },
  {
    "id": 251,
    "iso3": "CAN",
    "name": "Gentilly-2",
    "site_name": "Gentilly",
    "reactor_type": "PHWR-CANDU6",
    "net_electrical_mw": 645.0,
    "status": "shutdown",
    "commissioning_year": 1983,
    "shutdown_year": 2012,
    "latitude": 46.395,
    "longitude": -72.357,
    "source_cite": "WNA/IAEA"
  },
  {
    "id": 252,
    "iso3": "NLD",
    "name": "Dodewaard",
    "site_name": "Dodewaard",
    "reactor_type": "BWR-GEdesign",
    "net_electrical_mw": 54.0,
    "status": "shutdown",
    "commissioning_year": 1969,
    "shutdown_year": 1997,
    "latitude": 51.899,
    "longitude": 5.687,
    "source_cite": "WNA/IAEA"
  },
  {
    "id": 253,
    "iso3": "CHE",
    "name": "Goesgen",
    "site_name": "Goesgen",
    "reactor_type": "PWR-PWR3Loop",
    "net_electrical_mw": 920.0,
    "status": "operational",
    "commissioning_year": 1979,
    "shutdown_year": null,
    "latitude": 47.366,
    "longitude": 7.969,
    "source_cite": "WNA/IAEA"
  },
  {
    "id": 254,
    "iso3": "FRA",
    "name": "Golfech-1",
    "site_name": "Golfech",
    "reactor_type": "PWR-P4REP1300",
    "net_electrical_mw": 1310.0,
    "status": "operational",
    "commissioning_year": 1991,
    "shutdown_year": null,
    "latitude": 44.105,
    "longitude": 0.845,
    "source_cite": "WNA/IAEA"
  },
  {
    "id": 255,
    "iso3": "FRA",
    "name": "Golfech-2",
    "site_name": "Golfech",
    "reactor_type": "PWR-P4REP1300",
    "net_electrical_mw": 1310.0,
    "status": "operational",
    "commissioning_year": 1994,
    "shutdown_year": null,
    "latitude": 44.105,
    "longitude": 0.845,
    "source_cite": "WNA/IAEA"
  },
  {
    "id": 256,
    "iso3": "DEU",
    "name": "Grafenrheinfeld",
    "site_name": "Grafenrheinfeld",
    "reactor_type": "PWR-PWR",
    "net_electrical_mw": 1225.0,
    "status": "shutdown",
    "commissioning_year": 1982,
    "shutdown_year": 2015,
    "latitude": 49.984,
    "longitude": 10.186,
    "source_cite": "WNA/IAEA"
  },
  {
    "id": 257,
    "iso3": "USA",
    "name": "Grand-Gulf-1",
    "site_name": "Grand-Gulf",
    "reactor_type": "BWR-BWR-6(Mark3)",
    "net_electrical_mw": 1250.0,
    "status": "operational",
    "commissioning_year": 1985,
    "shutdown_year": null,
    "latitude": 32.007,
    "longitude": -91.045,
    "source_cite": "WNA/IAEA"
  },
  {
    "id": 258,
    "iso3": "FRA",
    "name": "Gravelines-1",
    "site_name": "Gravelines",
    "reactor_type": "PWR-CP1",
    "net_electrical_mw": 910.0,
    "status": "operational",
    "commissioning_year": 1980,
    "shutdown_year": null,
    "latitude": 51.014,
    "longitude": 2.138,
    "source_cite": "WNA/IAEA"
  },
  {
    "id": 259,
    "iso3": "FRA",
    "name": "Gravelines-2",
    "site_name": "Gravelines",
    "reactor_type": "PWR-CP1",
    "net_electrical_mw": 910.0,
    "status": "operational",
    "commissioning_year": 1980,
    "shutdown_year": null,
    "latitude": 51.014,
    "longitude": 2.138,
    "source_cite": "WNA/IAEA"
  },
  {
    "id": 260,
    "iso3": "FRA",
    "name": "Gravelines-3",
    "site_name": "Gravelines",
    "reactor_type": "PWR-CP1",
    "net_electrical_mw": 910.0,
    "status": "operational",
    "commissioning_year": 1981,
    "shutdown_year": null,
    "latitude": 51.014,
    "longitude": 2.138,
    "source_cite": "WNA/IAEA"
  },
  {
    "id": 261,
    "iso3": "FRA",
    "name": "Gravelines-4",
    "site_name": "Gravelines",
    "reactor_type": "PWR-CP1",
    "net_electrical_mw": 910.0,
    "status": "operational",
    "commissioning_year": 1981,
    "shutdown_year": null,
    "latitude": 51.014,
    "longitude": 2.138,
    "source_cite": "WNA/IAEA"
  },
  {
    "id": 262,
    "iso3": "FRA",
    "name": "Gravelines-5",
    "site_name": "Gravelines",
    "reactor_type": "PWR-CP1",
    "net_electrical_mw": 910.0,
    "status": "operational",
    "commissioning_year": 1985,
    "shutdown_year": null,
    "latitude": 51.014,
    "longitude": 2.138,
    "source_cite": "WNA/IAEA"
  },
  {
    "id": 263,
    "iso3": "FRA",
    "name": "Gravelines-6",
    "site_name": "Gravelines",
    "reactor_type": "PWR-CP1",
    "net_electrical_mw": 910.0,
    "status": "operational",
    "commissioning_year": 1985,
    "shutdown_year": null,
    "latitude": 51.014,
    "longitude": 2.138,
    "source_cite": "WNA/IAEA"
  },
  {
    "id": 264,
    "iso3": "DEU",
    "name": "Greifswald-1",
    "site_name": "Greifswald",
    "reactor_type": "PWR-VVERV-230",
    "net_electrical_mw": 440.0,
    "status": "shutdown",
    "commissioning_year": 1974,
    "shutdown_year": 1990,
    "latitude": 54.143,
    "longitude": 13.668,
    "source_cite": "WNA/IAEA"
  },
  {
    "id": 265,
    "iso3": "DEU",
    "name": "Greifswald-2",
    "site_name": "Greifswald",
    "reactor_type": "PWR-VVERV-230",
    "net_electrical_mw": 408.0,
    "status": "shutdown",
    "commissioning_year": 1975,
    "shutdown_year": 1990,
    "latitude": 54.143,
    "longitude": 13.668,
    "source_cite": "WNA/IAEA"
  },
  {
    "id": 266,
    "iso3": "DEU",
    "name": "Greifswald-3",
    "site_name": "Greifswald",
    "reactor_type": "PWR-VVERV-230",
    "net_electrical_mw": 408.0,
    "status": "shutdown",
    "commissioning_year": 1978,
    "shutdown_year": 1990,
    "latitude": 54.143,
    "longitude": 13.668,
    "source_cite": "WNA/IAEA"
  },
  {
    "id": 267,
    "iso3": "DEU",
    "name": "Greifswald-4",
    "site_name": "Greifswald",
    "reactor_type": "PWR-VVERV-230",
    "net_electrical_mw": 408.0,
    "status": "shutdown",
    "commissioning_year": 1979,
    "shutdown_year": 1990,
    "latitude": 54.143,
    "longitude": 13.668,
    "source_cite": "WNA/IAEA"
  },
  {
    "id": 268,
    "iso3": "DEU",
    "name": "Greifswald-5",
    "site_name": "Greifswald",
    "reactor_type": "PWR-VVERV-213",
    "net_electrical_mw": 408.0,
    "status": "shutdown",
    "commissioning_year": 1989,
    "shutdown_year": 1989,
    "latitude": 54.143,
    "longitude": 13.668,
    "source_cite": "WNA/IAEA"
  },
  {
    "id": 269,
    "iso3": "DEU",
    "name": "Grohnde",
    "site_name": "Grohnde",
    "reactor_type": "PWR-PWR",
    "net_electrical_mw": 1289.0,
    "status": "shutdown",
    "commissioning_year": 1985,
    "shutdown_year": 2021,
    "latitude": 52.033,
    "longitude": 9.412,
    "source_cite": "WNA/IAEA"
  },
  {
    "id": 270,
    "iso3": "DEU",
    "name": "Grosswelzheim",
    "site_name": "Grosswelzheim",
    "reactor_type": "BWR-Superheatedsteamreactor",
    "net_electrical_mw": 23.0,
    "status": "decommissioned",
    "commissioning_year": null,
    "shutdown_year": 1971,
    "latitude": 50.055,
    "longitude": 8.985,
    "source_cite": "WNA/IAEA"
  },
  {
    "id": 271,
    "iso3": "DEU",
    "name": "Gundremmingen-A",
    "site_name": "Gundremmingen-A",
    "reactor_type": "BWR",
    "net_electrical_mw": 237.0,
    "status": "shutdown",
    "commissioning_year": 1967,
    "shutdown_year": 1977,
    "latitude": 48.513,
    "longitude": 10.401,
    "source_cite": "WNA/IAEA"
  },
  {
    "id": 272,
    "iso3": "DEU",
    "name": "Gundremmingen-B",
    "site_name": "Gundremmingen-B",
    "reactor_type": "BWR-BWR-72",
    "net_electrical_mw": 1244.0,
    "status": "shutdown",
    "commissioning_year": 1984,
    "shutdown_year": 2017,
    "latitude": 48.513,
    "longitude": 10.401,
    "source_cite": "WNA/IAEA"
  },
  {
    "id": 273,
    "iso3": "DEU",
    "name": "Gundremmingen-C",
    "site_name": "Gundremmingen-C",
    "reactor_type": "BWR-BWR-72",
    "net_electrical_mw": 1249.0,
    "status": "shutdown",
    "commissioning_year": 1985,
    "shutdown_year": 2021,
    "latitude": 48.513,
    "longitude": 10.401,
    "source_cite": "WNA/IAEA"
  },
  {
    "id": 274,
    "iso3": "USA",
    "name": "H.-B.-Robinson-2",
    "site_name": "H.-B.-Robinson",
    "reactor_type": "PWR-WH3LP(DRYAMB)",
    "net_electrical_mw": 700.0,
    "status": "operational",
    "commissioning_year": 1971,
    "shutdown_year": null,
    "latitude": 34.402,
    "longitude": -80.158,
    "source_cite": "WNA/IAEA"
  },
  {
    "id": 275,
    "iso3": "USA",
    "name": "Haddam-Neck",
    "site_name": "Haddam-Neck",
    "reactor_type": "PWR",
    "net_electrical_mw": 582.0,
    "status": "shutdown",
    "commissioning_year": 1968,
    "shutdown_year": 1996,
    "latitude": 41.483,
    "longitude": -72.5,
    "source_cite": "WNA/IAEA"
  },
  {
    "id": 276,
    "iso3": "CHN",
    "name": "Haiyang-1",
    "site_name": "Haiyang",
    "reactor_type": "PWR-AP-1000",
    "net_electrical_mw": 1126.0,
    "status": "operational",
    "commissioning_year": 2018,
    "shutdown_year": null,
    "latitude": 36.704,
    "longitude": 121.382,
    "source_cite": "WNA/IAEA"
  },
  {
    "id": 277,
    "iso3": "CHN",
    "name": "Haiyang-2",
    "site_name": "Haiyang",
    "reactor_type": "PWR-AP-1000",
    "net_electrical_mw": 1126.0,
    "status": "operational",
    "commissioning_year": 2019,
    "shutdown_year": null,
    "latitude": 36.704,
    "longitude": 121.382,
    "source_cite": "WNA/IAEA"
  },
  {
    "id": 278,
    "iso3": "CHN",
    "name": "Haiyang-3",
    "site_name": "Haiyang",
    "reactor_type": "PWR-CAP1000",
    "net_electrical_mw": 1161.0,
    "status": "construction",
    "commissioning_year": null,
    "shutdown_year": null,
    "latitude": 36.704,
    "longitude": 121.382,
    "source_cite": "WNA/IAEA"
  },
  {
    "id": 279,
    "iso3": "CHN",
    "name": "Haiyang-4",
    "site_name": "Haiyang",
    "reactor_type": "PWR-CAP1000",
    "net_electrical_mw": 1161.0,
    "status": "construction",
    "commissioning_year": null,
    "shutdown_year": null,
    "latitude": 36.704,
    "longitude": 121.382,
    "source_cite": "WNA/IAEA"
  },
  {
    "id": 280,
    "iso3": "USA",
    "name": "Hallam",
    "site_name": "Hallam",
    "reactor_type": "OCR-LMGMR(SGR-Sodiumcooledgraphitemoderatedreactor)",
    "net_electrical_mw": 75.0,
    "status": "shutdown",
    "commissioning_year": 1963,
    "shutdown_year": 1964,
    "latitude": 40.559,
    "longitude": -96.785,
    "source_cite": "WNA/IAEA"
  },
  {
    "id": 281,
    "iso3": "JPN",
    "name": "Hamaoka-1",
    "site_name": "Hamaoka",
    "reactor_type": "BWR-BWR-4",
    "net_electrical_mw": 516.0,
    "status": "shutdown",
    "commissioning_year": 1976,
    "shutdown_year": 2009,
    "latitude": 34.621,
    "longitude": 138.141,
    "source_cite": "WNA/IAEA"
  },
  {
    "id": 282,
    "iso3": "JPN",
    "name": "Hamaoka-2",
    "site_name": "Hamaoka",
    "reactor_type": "BWR-BWR-4",
    "net_electrical_mw": 814.0,
    "status": "shutdown",
    "commissioning_year": 1978,
    "shutdown_year": 2009,
    "latitude": 34.621,
    "longitude": 138.141,
    "source_cite": "WNA/IAEA"
  },
  {
    "id": 283,
    "iso3": "JPN",
    "name": "Hamaoka-3",
    "site_name": "Hamaoka",
    "reactor_type": "BWR-BWR-5",
    "net_electrical_mw": 1056.0,
    "status": "suspended",
    "commissioning_year": 1987,
    "shutdown_year": null,
    "latitude": 34.621,
    "longitude": 138.141,
    "source_cite": "WNA/IAEA"
  },
  {
    "id": 284,
    "iso3": "JPN",
    "name": "Hamaoka-4",
    "site_name": "Hamaoka",
    "reactor_type": "BWR-BWR-5",
    "net_electrical_mw": 1092.0,
    "status": "suspended",
    "commissioning_year": 1993,
    "shutdown_year": null,
    "latitude": 34.621,
    "longitude": 138.141,
    "source_cite": "WNA/IAEA"
  },
  {
    "id": 285,
    "iso3": "JPN",
    "name": "Hamaoka-5",
    "site_name": "Hamaoka",
    "reactor_type": "BWR-ABWR",
    "net_electrical_mw": 1325.0,
    "status": "suspended",
    "commissioning_year": 2005,
    "shutdown_year": null,
    "latitude": 34.621,
    "longitude": 138.141,
    "source_cite": "WNA/IAEA"
  },
  {
    "id": 286,
    "iso3": "JPN",
    "name": "Hamaoka-6",
    "site_name": "Hamaoka",
    "reactor_type": "ABWR",
    "net_electrical_mw": null,
    "status": "planned",
    "commissioning_year": null,
    "shutdown_year": null,
    "latitude": 34.621,
    "longitude": 138.141,
    "source_cite": "WNA"
  },
  {
    "id": 287,
    "iso3": "KOR",
    "name": "Hanbit-1",
    "site_name": "Hanbit",
    "reactor_type": "PWR-WHF",
    "net_electrical_mw": 903.0,
    "status": "operational",
    "commissioning_year": 1986,
    "shutdown_year": null,
    "latitude": 35.405,
    "longitude": 126.41,
    "source_cite": "IAEA"
  },
  {
    "id": 288,
    "iso3": "KOR",
    "name": "Hanbit-2",
    "site_name": "Hanbit",
    "reactor_type": "PWR-WHF",
    "net_electrical_mw": 903.0,
    "status": "operational",
    "commissioning_year": 1987,
    "shutdown_year": null,
    "latitude": 35.405,
    "longitude": 126.41,
    "source_cite": "IAEA"
  },
  {
    "id": 289,
    "iso3": "KOR",
    "name": "Hanbit-3",
    "site_name": "Hanbit",
    "reactor_type": "PWR-OPR-1000",
    "net_electrical_mw": 950.0,
    "status": "operational",
    "commissioning_year": 1995,
    "shutdown_year": null,
    "latitude": 35.405,
    "longitude": 126.41,
    "source_cite": "IAEA"
  },
  {
    "id": 290,
    "iso3": "KOR",
    "name": "Hanbit-4",
    "site_name": "Hanbit",
    "reactor_type": "PWR-OPR-1000",
    "net_electrical_mw": 950.0,
    "status": "operational",
    "commissioning_year": 1996,
    "shutdown_year": null,
    "latitude": 35.405,
    "longitude": 126.41,
    "source_cite": "IAEA"
  },
  {
    "id": 291,
    "iso3": "KOR",
    "name": "Hanbit-5",
    "site_name": "Hanbit",
    "reactor_type": "PWR-OPR-1000",
    "net_electrical_mw": 950.0,
    "status": "operational",
    "commissioning_year": 2002,
    "shutdown_year": null,
    "latitude": 35.405,
    "longitude": 126.41,
    "source_cite": "IAEA"
  },
  {
    "id": 292,
    "iso3": "KOR",
    "name": "Hanbit-6",
    "site_name": "Hanbit",
    "reactor_type": "PWR-OPR-1000",
    "net_electrical_mw": 993.0,
    "status": "operational",
    "commissioning_year": 2002,
    "shutdown_year": null,
    "latitude": 35.405,
    "longitude": 126.41,
    "source_cite": "IAEA"
  },
  {
    "id": 293,
    "iso3": "KOR",
    "name": "Hanul-1",
    "site_name": "Hanul",
    "reactor_type": "PWR-FranceCPI",
    "net_electrical_mw": 903.0,
    "status": "operational",
    "commissioning_year": 1988,
    "shutdown_year": null,
    "latitude": 37.09,
    "longitude": 129.384444,
    "source_cite": "IAEA"
  },
  {
    "id": 294,
    "iso3": "KOR",
    "name": "Hanul-2",
    "site_name": "Hanul",
    "reactor_type": "PWR-FranceCPI",
    "net_electrical_mw": 903.0,
    "status": "operational",
    "commissioning_year": 1989,
    "shutdown_year": null,
    "latitude": 37.09,
    "longitude": 129.384444,
    "source_cite": "IAEA"
  },
  {
    "id": 295,
    "iso3": "KOR",
    "name": "Hanul-3",
    "site_name": "Hanul",
    "reactor_type": "PWR-OPR-1000",
    "net_electrical_mw": 997.0,
    "status": "operational",
    "commissioning_year": 1998,
    "shutdown_year": null,
    "latitude": 37.09,
    "longitude": 129.384444,
    "source_cite": "IAEA"
  },
  {
    "id": 296,
    "iso3": "KOR",
    "name": "Hanul-4",
    "site_name": "Hanul",
    "reactor_type": "PWR-OPR-1000",
    "net_electrical_mw": 950.0,
    "status": "operational",
    "commissioning_year": 1999,
    "shutdown_year": null,
    "latitude": 37.09,
    "longitude": 129.384444,
    "source_cite": "IAEA"
  },
  {
    "id": 297,
    "iso3": "KOR",
    "name": "Hanul-5",
    "site_name": "Hanul",
    "reactor_type": "PWR-OPR-1000",
    "net_electrical_mw": 950.0,
    "status": "operational",
    "commissioning_year": 2004,
    "shutdown_year": null,
    "latitude": 37.09,
    "longitude": 129.384444,
    "source_cite": "IAEA"
  },
  {
    "id": 298,
    "iso3": "KOR",
    "name": "Hanul-6",
    "site_name": "Hanul",
    "reactor_type": "PWR-OPR-1000",
    "net_electrical_mw": 950.0,
    "status": "operational",
    "commissioning_year": 2005,
    "shutdown_year": null,
    "latitude": 37.09,
    "longitude": 129.384444,
    "source_cite": "IAEA"
  },
  {
    "id": 299,
    "iso3": "GBR",
    "name": "Hartlepool-A1",
    "site_name": "Hartlepool-A1",
    "reactor_type": "GCR-AGR",
    "net_electrical_mw": 590.0,
    "status": "operational",
    "commissioning_year": 1989,
    "shutdown_year": null,
    "latitude": 54.634,
    "longitude": -1.18,
    "source_cite": "WNA/IAEA"
  },
  {
    "id": 300,
    "iso3": "GBR",
    "name": "Hartlepool-A2",
    "site_name": "Hartlepool-A2",
    "reactor_type": "GCR-AGR",
    "net_electrical_mw": 595.0,
    "status": "operational",
    "commissioning_year": 1989,
    "shutdown_year": null,
    "latitude": 54.634,
    "longitude": -1.18,
    "source_cite": "WNA/IAEA"
  },